name,state,population,breast,colorectal,prostate,lung,melanoma,poverty,income,region,black_alone,white_alone,asian_alone,lat,lon
anchorage borough,ak,299321,127.8,40.9,113,61.5,14.5,7.7,76362,pacific,5.658807768248803,64.25509737038163,8.938898373318278,61.148133,-149.194236
fairbanks north star borough,ak,100150,133.2,39.2,82.1,58.1,13.1,8.8,67204,pacific,4.17673489765352,76.50224663005491,3.0324513230154766,64.807921,-146.563655
juneau borough,ak,32524,101.6,36.9,117.9,35.1,13.7,7.5,83642,pacific,1.1714426269831508,69.41028163817488,7.170089779854877,58.445711,-134.234239
kenai peninsula borough,ak,57637,127.4,41,96.5,64.9,12.3,10.1,61629,pacific,0.598573832781026,83.64071690060204,1.3203324253517705,60.115308,-151.704297
matanuska-susitna borough,ak,98679,119.8,37.5,121.4,69.7,15,9.4,72371,pacific,1.0559490874451505,83.67636477872698,1.3336170816485777,62.304529,-149.578978
autauga,al,55049,150.8,46.2,110.6,74.9,25.4,13.5,51868,east_south_central,18.521680684481098,76.86061508837581,0.8065541608385257,32.534921,-86.642757
baldwin,al,199510,117.5,41.5,121.3,66.9,30.9,14.2,47539,east_south_central,9.319833592301137,86.43225903463485,0.6706430755350609,30.660974,-87.749845
barbour,al,26614,132.6,49.6,159.8,74.6,12.3,28.2,30981,east_south_central,47.929661080634254,46.704741865183735,0.4847072969114,31.869603,-85.393197
bibb,al,22572,158.1,44.5,116.7,86.4,15.6,23.1,39781,east_south_central,21.21212121212121,76.95374800637958,0.06202374623427255,32.998644,-87.126439
blount,al,57704,110.2,41.1,95.6,69.7,27.1,17.2,44392,east_south_central,1.568348814640233,95.44052405379176,0.15943435463746014,33.980867,-86.567371
butler,al,20280,142.1,47.8,157,58.3,17.7,28.8,31041,east_south_central,43.76232741617357,53.629191321499015,1.0009861932938855,31.752434,-86.680289
calhoun,al,115883,104.5,46.3,148.6,84.2,17.8,21.4,37898,east_south_central,20.530189932949614,74.88328745372488,0.931111552168998,33.771428,-85.826035
chambers,al,34018,114,49.7,160.9,75.4,16.4,22.5,33883,east_south_central,40.50502675054383,57.07860544417661,0.9171615027338468,32.914372,-85.392043
cherokee,al,25897,109.9,35.9,115.7,82.4,17.2,20.1,37478,east_south_central,4.668494420203112,93.27721357686218,0.4208981735336139,34.175956,-85.603794
chilton,al,43817,120.4,29.5,112.3,73.9,22.1,20.3,41348,east_south_central,10.082844558048246,83.84873450943698,0.4359038729260333,32.847853,-86.718814
clarke,al,24847,111.8,67.1,138,69.5,24.5,25.4,34593,east_south_central,45.49442588642492,53.3384311989375,0.4588079043747736,31.67666,-87.83081
clay,al,13483,97.5,44,164.3,83.3,30.2,19.6,33344,east_south_central,14.781576800415337,82.896981383965,0,33.269086,-85.860547
cleburne,al,14991,90.6,49.6,115.6,74.9,23.4,18.9,40407,east_south_central,2.361416850110066,94.56340470949236,0.5736775398572477,33.674558,-85.518768
coffee,al,50991,121.3,30.3,146.6,71.5,21.8,18.5,44666,east_south_central,17.19126904747897,76.37622325508423,1.2217842364338805,31.402627,-85.988207
colbert,al,54377,129.7,46.4,100.7,75.9,26.2,16.3,40032,east_south_central,15.690457362487816,79.77453702852308,0.46894826856943195,34.700434,-87.804984
conecuh,al,12697,159.9,52.2,135.2,73.5,19.3,30.5,27196,east_south_central,46.31015200441049,51.92565172875482,0.11026226667716783,31.429267,-86.993681
covington,al,37729,102.6,51.1,103.2,83,21.6,19.2,35187,east_south_central,13.106628853136844,84.49998674759469,0.46648466696705454,31.248493,-86.451248
crenshaw,al,13896,109.5,53.8,128.9,61.5,22.5,22.2,34105,east_south_central,23.83419689119171,71.49539435808866,1.669545192861255,31.731486,-86.313548
cullman,al,81316,115.2,40.8,94.4,69.6,32.3,16.4,40142,east_south_central,1.1055634807417973,95.8556741600669,0.611195828619214,34.131941,-86.867619
dale,al,49607,112.9,35.4,145,76.7,20.9,20.1,41805,east_south_central,19.66657931340335,74.42699619005383,1.0240490253391659,31.431819,-85.611032
dallas,al,41426,134,62.4,213.6,76.2,14.4,31.3,27524,east_south_central,69.51672862453532,28.687297832279246,0.39347269830541204,32.325975,-87.106479
dekalb,al,70937,84.7,36.7,127.3,60.8,15.4,20,36713,east_south_central,1.5252970946050721,87.20131948066594,0.30167613516218617,34.459773,-85.804141
elmore,al,80957,121.8,45.3,108,78.1,31.6,13.4,51650,east_south_central,21.364428029694775,75.37087589708116,0.5644972022184617,32.596648,-86.149147
escambia,al,37875,112.1,43.2,121.2,75.5,15,27.8,33455,east_south_central,32.388118811881185,61.92211221122112,0.10561056105610561,31.126123,-87.16162
etowah,al,103363,101.8,44.2,142.3,81.9,21.3,19.6,38587,east_south_central,15.412671845824908,81.29021022996623,0.6762574615674855,34.045254,-86.034762
fayette,al,16783,113.2,58.9,115.9,77.3,24,20.7,35661,east_south_central,12.536495263063815,85.62831436572722,0.2681284633259846,33.721206,-87.738862
franklin,al,31573,118,45.3,85,72.4,20.5,23.1,33332,east_south_central,4.519684540588478,89.10461470243563,0.3230608431254553,34.441671,-87.843812
geneva,al,26765,105,40.3,120.6,90.3,31.1,23.6,35378,east_south_central,9.602092284700168,86.81113394358304,0.38483093592378104,31.095017,-85.838985
henry,al,17187,100.1,39.2,157.5,66.5,27.2,18.2,41590,east_south_central,27.887356723104674,70.47768662361086,0,31.514694,-85.241406
houston,al,103891,109,45.9,144.8,70.8,23.9,18.1,39636,east_south_central,26.64330885254738,69.62297022841247,0.833565948927241,31.153184,-85.30252
jackson,al,52608,103.9,45.4,108.3,80.9,20.4,16.9,37204,east_south_central,3.2941757907542577,91.14393248175182,0.3725669099756691,34.779415,-85.999301
jefferson,al,659096,130.5,43.5,160.1,65.1,17.9,18.9,45024,east_south_central,42.52005777610545,52.42013303069659,1.5069124983310473,33.554314,-86.89649
lamar,al,14066,137.8,57.4,145.4,80.4,18.1,23,36475,east_south_central,11.261197213138063,87.55154272714347,0,33.779206,-88.096899
lauderdale,al,92641,99,39.8,114.1,69.3,29,17.1,43586,east_south_central,9.850929933830594,87.03165984823134,0.6789650370786153,34.901372,-87.653998
lawrence,al,33433,102,48,125.8,88.1,25.7,17.4,40713,east_south_central,11.366015613316184,78.09050937696288,0.0927227589507373,34.521651,-87.311045
lee,al,153947,116.8,34.9,136.3,59.4,12.9,19.8,44647,east_south_central,23.235269280986312,69.94744944688756,3.622025762112935,32.601136,-85.355563
limestone,al,90257,117.1,37.6,150,73.4,19.1,15.9,50148,east_south_central,12.743609913912495,81.45296209712266,1.2464407192793912,34.810076,-86.98137
madison,al,349973,125.9,38.7,122.1,64.8,19.1,13.9,58258,east_south_central,24.18958033905473,68.82273775405531,2.449903278252894,34.76309,-86.550207
marion,al,30239,115.2,46.8,110.6,74.2,19.7,20.8,34162,east_south_central,3.346671516915242,93.39594563312279,0.32408479116372896,34.13655,-87.887138
marshall,al,94534,84.6,41.7,106,79.4,23,18.1,38399,east_south_central,2.0955423445532824,92.47783866122242,0.5881481794909768,34.366962,-86.306637
mobile,al,414291,120.2,49.2,135.2,75.4,20,20.3,42278,east_south_central,35.31479081128965,59.57020548358521,1.964802518036839,30.685147,-88.19753
montgomery,al,227392,125.9,47.9,140.8,61,19,22.1,44013,east_south_central,56.820380664227415,37.7884886011821,2.2467808893892487,32.220258,-86.207614
morgan,al,119555,113.2,44.8,154.4,80.4,24.6,17.4,44079,east_south_central,12.175985947890092,81.870268913889,0.6708209610639455,34.453475,-86.852928
pickens,al,20042,160.3,39,150.6,65.6,12.9,23.8,32314,east_south_central,41.84712104580381,56.152080630675584,0.059874264045504444,33.280877,-88.088693
pike,al,33277,122.7,36,160.8,61.8,28.8,25.3,35944,east_south_central,37.60555338522102,58.322565135078285,2.115575322294678,31.802715,-85.940921
randolph,al,22615,112.4,45,155.4,75.5,15,23.4,35121,east_south_central,19.584346672562457,77.1700198982976,0.22551403935441078,33.293787,-85.45907
russell,al,58636,137.1,51.3,158.8,78.7,15.5,23.9,35762,east_south_central,42.27607613070469,51.831639265979945,0.7418650658298657,32.28838,-85.184963
shelby,al,205951,130.4,37.8,146.2,57.1,27.4,8.3,68718,east_south_central,11.603730984554579,81.21203587261047,1.9849381649033022,33.264278,-86.660648
st. clair,al,86576,109.1,39.8,120.4,74.7,21.5,14,52437,east_south_central,9.420624653483644,87.48151912770282,0.855895398262798,33.715703,-86.314688
talladega,al,81057,105.7,49.3,137.6,74,18.3,19.8,38505,east_south_central,32.071258497106975,64.63352949159234,0.5452952860332853,33.380057,-86.165907
tallapoosa,al,40958,107.3,40.2,132.4,70.5,22.1,22.2,37747,east_south_central,27.46227843156404,70.26221983495287,0.507837296743005,32.862405,-85.797502
tuscaloosa,al,202471,135.5,42,160.3,72.3,14.9,17.2,45959,east_south_central,31.013330304092932,65.3644225592801,1.5034251818778985,33.28955,-87.52503
walker,al,65593,103.6,42.4,139.7,98.3,22.3,22,37193,east_south_central,5.779580138124495,91.36950589239706,0.4604149833061455,33.803335,-87.297357
washington,al,16909,116.4,54.1,121.1,74.8,18.8,19.7,41115,east_south_central,24.773789106393046,65.53906203796795,0.6505411319415696,31.407604,-88.207877
winston,al,24013,96.1,50.1,101.3,90.8,21.6,21.9,33578,east_south_central,0.4081122725190522,96.57685420397284,0.3498105193020447,34.149225,-87.373683
ashley,ar,20989,102.1,62.4,144.7,77,12.3,21.9,36479,west_south_central,25.918338177140406,71.69946162275478,0,33.191222,-91.768449
baxter,ar,40992,116,38.6,122,85.6,23.9,15.6,36082,west_south_central,0.2463895394223263,96.77010148321624,0.5537665886026542,36.287189,-92.336971
benton,ar,245231,115.9,40.4,124.5,56.4,23.9,11.7,56518,west_south_central,1.4818681161843323,88.27799095546648,3.552976581264196,36.338723,-94.256187
boone,ar,37301,95.2,44.6,124.1,67.7,24.9,17.2,38410,west_south_central,0.34583523229940216,96.52020053081687,0.5120506152650063,36.308599,-93.091563
carroll,ar,27690,113.6,37.8,101.5,59.1,17.6,22.2,34109,west_south_central,1.1484290357529794,93.37667027807873,0.8847959552184904,36.341028,-93.53825
cleburne,ar,25587,112,43,151.2,83.6,16.8,16.3,41612,west_south_central,0.5588775550084027,97.119631062649,0.5745104936100364,35.53811,-92.026736
conway,ar,21060,116.3,37.8,128,75,17,21.1,38145,west_south_central,11.823361823361823,85.27540360873694,0.07597340930674264,35.262215,-92.701315
craighead,ar,102884,99.1,39.9,85,74.6,16.7,20,41608,west_south_central,13.834026670813731,80.76474476109016,1.1877454220286925,35.830789,-90.632841
crawford,ar,61927,119.7,46.5,111.2,79.1,23.9,19.2,39384,west_south_central,1.3322137355273145,90.22881780160512,1.7536777173123193,35.589091,-94.24286
crittenden,ar,49511,95.4,44.6,68.9,75.6,6.5,23.6,37726,west_south_central,50.71600250449395,45.11724667245662,0.6544000323160509,35.207942,-90.308859
cross,ar,17329,95.4,69.5,91.2,77.5,23.9,20.6,35438,west_south_central,23.273125973801143,74.67251428241676,0.30007501875468867,35.295726,-90.771227
faulkner,ar,120417,118,41.6,143.2,75.9,16.8,14.9,49936,west_south_central,11.181145519320362,83.5920177383592,1.2440103972030527,35.146979,-92.332044
franklin,ar,17799,86.3,34.4,93,77.1,15.5,20.7,38874,west_south_central,0.9214000786561043,94.3255239058374,0.35957076240238217,35.512351,-93.890619
fulton,ar,12186,85.5,45.9,117.9,64.7,17.4,22.9,33439,west_south_central,0.07385524372230429,96.5041851304776,0.14771048744460857,36.38167,-91.818237
garland,ar,97119,115.4,35.3,135.8,80.6,19.7,22.1,39057,west_south_central,8.195100855651315,85.52394485116197,0.7114982650150846,34.576686,-93.150425
grant,ar,18046,112.7,62.5,136.7,96.1,19.7,14.2,47089,west_south_central,4.366618641250138,93.84351102737449,0.1828660090878865,34.290018,-92.423583
greene,ar,43745,99.8,42.2,90.2,89.2,12,17.7,40840,west_south_central,0.9395359469653675,95.94010744085038,0.13487255686364155,36.117698,-90.559072
hot spring,ar,33440,92.9,44.6,123.7,94.2,18.2,18.5,39927,west_south_central,11.273923444976077,85.75657894736842,0.2541866028708134,34.317634,-92.946006
independence,ar,37030,94.8,43.5,135.4,82.3,19.6,18.4,37761,west_south_central,1.9497704563867135,92.5411828247367,0.8587631650013503,35.74158,-91.569724
izard,ar,13461,123,40.9,128.2,55.9,17.6,20.8,33308,west_south_central,1.2331921848302503,96.90216180075774,0.15600624024961,36.094875,-91.913417
jackson,ar,17495,91.3,61.3,127.5,104.4,21.5,27.5,32923,west_south_central,17.130608745355815,79.30265790225779,0.14289797084881395,35.599231,-91.214571
jefferson,ar,72385,119.1,42.4,182.3,97.5,12.1,25.8,36169,west_south_central,56.11245423775644,40.91040961525178,0.7998894798646128,34.268785,-91.931515
johnson,ar,26025,108.3,38,62.1,97.2,16.5,23.4,33634,west_south_central,1.7675312199807878,92.23439000960614,1.3948126801152738,35.570055,-93.45991
lawrence,ar,16915,96.4,49.8,75.6,102.7,15.2,20.4,34740,west_south_central,0.7212533254507834,97.16819391073012,0.08276677505172923,36.041247,-91.107075
logan,ar,21935,90,36.9,124.8,87,14.3,18.7,34090,west_south_central,1.7369500797811717,93.09778892181446,2.1837246409847277,35.215272,-93.716306
lonoke,ar,71279,115,42.2,159.3,91.9,18.6,12.6,55648,west_south_central,5.8937414946898805,89.24087038258112,0.7533775726371021,34.75427,-91.888668
madison,ar,15761,87,38.9,96.8,67.8,21.4,20.2,36358,west_south_central,0.6979252585495844,94.86073218704396,0.41875515512975064,36.010965,-93.724563
marion,ar,16404,118.7,31.5,132.1,82.7,28.5,19,34217,west_south_central,0.3596683735674226,96.61058278468666,0.3291880029261156,36.268347,-92.68422
miller,ar,43666,104.5,47.6,97.3,81.2,12.1,21.4,40005,west_south_central,25.17061329180598,71.18123940823524,0.1305363440663216,33.312147,-93.891561
mississippi,ar,44199,91.6,60,92.3,73.6,12.2,25.6,34285,west_south_central,34.85146722776533,61.11676734767755,0.20588701101834883,35.763902,-90.054166
pike,ar,11017,89.3,39,114.2,87.8,26.3,21.9,35592,west_south_central,3.0316783153308524,89.09866569846601,0.6989198511391486,34.163498,-93.656342
poinsett,ar,24131,99.7,49.1,85.3,114,12,24.7,34113,west_south_central,6.000580166590693,89.33736687248768,0.11603331813849406,35.574032,-90.66294
polk,ar,20290,93.6,38.7,74.6,67.1,14.8,24.4,31818,west_south_central,0.37949728930507637,92.59733859043864,0.38442582552981763,34.485843,-94.228069
pope,ar,63107,106.3,43.8,134.2,86.3,17,20,39704,west_south_central,2.9917441805188014,91.15787472071244,1.0109813491371797,35.447633,-93.03416
pulaski,ar,391806,129.6,38.8,173.7,68,20.4,17.3,46526,west_south_central,35.9032276177496,57.863075093285964,2.1487675022842936,34.769932,-92.311799
randolph,ar,17584,99.1,48.3,78.1,83.9,16.9,22.6,33148,west_south_central,1.046405823475887,96.57074613284804,0.04549590536851683,36.341483,-91.027717
saline,ar,115577,118.7,37.2,133.6,73.9,18.7,10.3,54921,west_south_central,6.047050883826367,90.1165456795037,1.0244252749249418,34.646618,-92.676573
sebastian,ar,127351,111.6,42.8,114.6,78.2,18.5,22.1,41685,west_south_central,6.5935878006454605,79.61853460122025,4.362745482956553,35.199717,-94.274141
sharp,ar,17027,126.8,47.8,97.9,89.3,18.9,22.8,31224,west_south_central,0.32301638574029484,95.69507253186116,0.5696834439419746,36.161157,-91.479864
union,ar,40334,121,46,177.3,89,14.6,21,38132,west_south_central,32.972182277978874,64.6204194971984,0.49585957256904845,33.171363,-92.597288
van buren,ar,16892,127.1,36.8,108.9,65.1,16.3,18.9,35111,west_south_central,0.5387165522140658,95.61330807482832,0.23679848448969926,35.580651,-92.515703
washington,ar,219930,119.4,39.5,125.3,67.1,23.2,20.9,43302,west_south_central,3.448824626017369,78.30446051016233,2.3953075978720504,35.979067,-94.215579
white,ar,78823,107,52.3,145.3,91.2,18.3,17.2,43363,west_south_central,4.258909201628966,91.52151021909849,0.7269451809750961,35.256274,-91.745551
yell,ar,21716,102.6,48.5,121.2,88.1,19.2,19.7,34679,west_south_central,2.716890771781175,81.54356235034076,1.418309080862037,35.002597,-93.411249
apache,az,72346,56.4,22.4,72.6,22.9,4.5,38.7,30252,mountain,0.49899096010836813,22.54029248334393,0.3580018245652835,35.395616,-109.488846
cochise,az,128177,90.1,38.1,62.9,46.9,15.9,18.8,45294,mountain,3.960148856659151,82.80424725184706,1.7553851314978506,31.879565,-109.751141
coconino,az,138064,98.5,28,83.4,36.7,21.7,23.2,48732,mountain,1.5471085873218218,63.25689535287982,1.7600533086104995,35.838729,-111.770512
gila,az,53179,81.8,32,54.5,54.3,18,22.6,39868,mountain,0.6243065871866714,78.62502115496719,0.7860245585663513,33.799752,-110.811737
graham,az,37529,118.5,47.4,56.9,45.5,14,21.6,43497,mountain,1.974473074155986,78.87233872471955,0.7061206000692798,32.932716,-109.887438
la paz,az,20304,69.3,32.3,73,54.4,9.7,23.2,33994,mountain,0.37923561859732074,75.22655634357763,0.7289204097714737,33.729264,-113.981338
maricopa,az,4088549,118.9,35.2,91.2,52.2,19.3,17.6,52066,mountain,5.284613196515439,78.60981976735512,3.841803045530334,33.348834,-112.491233
mohave,az,203629,110.8,45.1,83.8,76.6,14.3,21.3,38560,mountain,1.0312872920851155,89.57221220945937,1.2527685152900618,35.70406,-113.757909
navajo,az,108209,83.7,29.4,78.8,39.6,11.9,31.8,37182,mountain,0.8363444815126283,47.698435435130165,0.6090066445489747,35.399539,-110.321403
pima,az,1003338,107.1,34.8,76,50.9,22.1,19.3,43926,mountain,3.5219437517566363,77.31671679932386,2.7206185751959957,32.097379,-111.789949
pinal,az,397604,86.7,30.2,78,45.5,14.7,16.7,49887,mountain,4.5832033882958925,79.97630808543174,1.7540064989285822,32.904309,-111.344714
santa cruz,az,46547,70.8,35.7,54.5,36.1,9.5,22.7,35753,mountain,0.41678303650074117,85.04737147399403,0.766966721808065,31.526001,-110.846571
yavapai,az,218586,118.1,31.7,85.5,51.9,17.4,16.4,40486,mountain,0.5302260895025299,91.97661332381763,0.8573284656839871,34.599881,-112.553864
yuma,az,203292,98.6,31.2,60.8,48,8,19.2,40498,mountain,2.0807508411545954,72.79135430808886,1.2897703795525648,32.769404,-113.905564
alameda,ca,1605217,121.4,36.5,121.6,46,16.6,13,72128,pacific,11.343762245229149,43.85531675779661,28.19444349268666,37.650547,-121.917885
amador,ca,36963,149.8,38,114,58.7,27.2,14.3,52357,pacific,2.4294564835105374,86.67857046235424,1.4798582366149933,38.44639,-120.651116
butte,ca,223877,141.5,40.8,128.9,61.4,27.2,21.4,42395,pacific,1.5035041563001112,83.12823559365187,4.310849260978126,39.666929,-121.600672
calaveras,ca,44787,101.5,37.8,110.6,52.3,38.9,15,52598,pacific,0.576060017415768,92.22318976488714,1.000290262799473,38.204606,-120.554132
colusa,ca,21361,113.5,35.8,98.3,56,16.7,13,48897,pacific,1.0392771873975937,87.64102804175835,1.6197743551331867,39.177573,-122.237028
contra costa,ca,1107925,129.5,41.5,136.9,49.2,29.4,10.8,78909,pacific,8.757993546494573,59.73842994787553,15.511248505088341,37.923419,-121.951212
del norte,ca,27628,112.7,35.9,99.8,78.4,11.8,23.7,38663,pacific,2.323729549732156,77.76531055450992,2.432315042710294,41.744957,-123.957814
el dorado,ca,183e3,135.8,38.2,119.3,50,35.2,11.4,63002,pacific,0.9748633879781421,86.97540983606558,4.1508196721311474,38.778738,-120.524647
fresno,ca,963160,114.1,36.1,109.5,50.8,15.9,28.6,43741,pacific,5.028655675069563,61.580526599941855,9.921300718468375,36.758179,-119.64932
glenn,ca,27976,133,39.8,109,61.2,20.2,19.1,42129,pacific,0.6970260223048327,83.975550471833,2.4485273091221047,39.598405,-122.392207
humboldt,ca,135182,111,42.6,111.7,56.4,28.5,21.5,40882,pacific,1.1858087615215043,81.2075572191564,2.7659007856075513,40.70501,-123.915819
imperial,ca,178807,100.7,33.7,127.1,44.3,7.9,22.7,40106,pacific,2.715777346524465,69.54369795365953,1.4305927620283323,33.039506,-115.36532
inyo,ca,18326,141,32.7,137.8,45.7,16,15.7,45784,pacific,0.9822110662446797,81.86729237149405,1.216850376514242,36.511127,-117.41079
kern,ca,871337,107.6,36.5,108.9,55.7,15.5,22.7,46688,pacific,5.539073860056442,74.34918980830608,4.600745750496077,35.342849,-118.7299
kings,ca,150261,103.7,37.6,104,48.8,15.6,21.8,45794,pacific,6.3862213082569665,67.03535847625132,3.7933994848962804,36.075361,-119.815502
lake,ca,64076,109.5,44.8,91.1,73.7,27.7,23.3,36973,pacific,2.1771021911480117,78.79861414570198,1.360883950309008,39.099645,-122.753184
lassen,ca,31945,91.6,29.6,94.4,60.9,15.1,19.1,50487,pacific,8.905932070746596,79.70261386758492,1.6747534825481296,40.67359,-120.594333
los angeles,ca,10057155,116.1,39.4,113.8,39.9,13.2,19,54443,pacific,8.265886326699748,52.534310150335756,14.232265486611274,34.191753,-118.265135
madera,ca,153366,104.1,35.5,110.8,51.8,19,23.4,41223,pacific,3.326682576320697,78.99143226008373,1.9919669287847372,37.218031,-119.762648
marin,ca,259358,137.5,35.8,136.7,41.6,46.1,8.7,94347,pacific,2.3423221955752282,79.01356426252516,5.665142390055444,38.055183,-122.748859
mariposa,ca,17645,111.6,36,107.2,54.6,28.5,16.4,45251,pacific,1.280816095211108,88.08160952111079,1.2694814395012752,37.581522,-119.905517
mendocino,ca,87409,116.7,38.6,110.6,52.2,27.2,20.9,42001,pacific,0.64524248075141,82.76836481369196,1.7606882586461348,39.433624,-123.431554
merced,ca,265001,108.5,37.9,104.3,56.9,14.6,24.8,41003,pacific,3.359232606669409,58.58053365836356,7.4878962720895395,37.191857,-120.717669
modoc,ca,9033,118.7,28.1,85.1,43.7,22,20,37055,pacific,0.9077825750027676,90.23580205911657,1.4391674969556072,41.589848,-120.724967
monterey,ca,430201,115.3,29.4,141,42.6,21.7,17.5,55411,pacific,2.6703796597404468,69.87663905941642,5.856564722071775,36.239774,-121.308902
napa,ca,140823,138.5,40.2,134.3,53.3,31.4,9.7,68619,pacific,2.0898574806672205,73.2259645086385,7.762226340867614,38.506474,-122.330533
nevada,ca,98639,130.8,31.8,116.7,47.3,30.1,12.8,55246,pacific,0.5018299050071473,92.22822615801053,1.2986749662912236,39.30137,-120.768752
orange,ca,3132211,123.4,35.8,114.3,44.1,25.7,13.5,73827,pacific,1.6448125621166645,63.04648697038609,19.220065314884597,33.676913,-117.776146
placer,ca,370571,140.7,36.5,129.9,49.6,35.7,8.3,73643,pacific,1.4769099578758187,83.22669609872332,6.709105677454523,39.063427,-120.717652
plumas,ca,18754,107.7,34.2,115.4,44.2,26.5,15.7,47645,pacific,0.1386370907539725,89.58088941025915,0.9118054814972806,40.004682,-120.838598
riverside,ca,2323892,115.3,39.4,120,47.2,22,17.4,53909,pacific,6.240608427586135,63.268602843849884,6.156353221234033,33.74368,-115.993846
sacramento,ca,1479300,132.5,41.9,122.7,56.9,20.6,18.9,52980,pacific,9.900899073886297,59.24998310011492,15.158182924356115,38.449315,-121.344243
san benito,ca,58051,113.2,33.8,157.5,40.2,18.4,12.7,66780,pacific,0.7579542126750616,83.82629067544056,2.6132194105183375,36.605706,-121.074996
san bernardino,ca,2106754,114,43,130.2,49.5,16.8,19.2,52112,pacific,8.578742463524454,62.018726438872314,6.755985748692064,34.841438,-116.178462
san diego,ca,3253356,128.3,37.2,115.8,49,26.9,15.3,61365,pacific,5.038735385860017,71.00501758799221,11.569376360902403,33.028203,-116.770207
san francisco,ca,850282,121.6,40.4,105.1,49,19.2,13.8,76933,pacific,5.363749908853769,48.14343947066973,33.85312167022235,37.759715,-122.693976
san joaquin,ca,714860,112.3,39.1,130.6,56.8,14.8,19.8,51219,pacific,6.976750692443275,56.37691296197857,14.899560753154464,37.934777,-121.271447
san luis obispo,ca,278680,138.2,35,114.2,46.9,44.2,15,57743,pacific,1.9793311324816993,85.45464331850151,3.722907994832783,35.387418,-120.452197
san mateo,ca,754748,135.9,36.6,129.7,45.3,24.1,8,91061,pacific,2.4555215780631414,53.58887999703212,27.019084515626407,37.43621,-122.355663
santa barbara,ca,439395,129.5,34.5,111,42.1,33.4,16.2,60803,pacific,2.020505467745423,74.11645558096929,5.3123044185755415,35.014583,-119.884478
santa clara,ca,1885056,119.6,36.6,131.9,41.1,20.7,10.5,91843,pacific,2.5465025972703197,46.883222567393226,34.37812988049161,37.232484,-121.696278
santa cruz,ca,270931,136,31.3,141.2,37.6,34.2,14.9,65282,pacific,0.8762378613004788,79.32979245638188,4.491549508915554,37.021606,-122.009787
shasta,ca,179228,134.3,37.1,122.8,62.5,39,19.7,41236,pacific,0.9814314727609526,87.0087263150847,2.942062624143549,40.763767,-122.040522
siskiyou,ca,43668,107.9,33.9,109.6,60.5,21,20.4,37108,pacific,1.6236145461207292,85.54318952093065,1.5915544563524777,41.59265,-122.540374
solano,ca,429596,131.1,40.5,141.4,58.1,21.5,12.9,63398,pacific,14.133278708367861,52.880613413532714,15.233847614968482,38.266919,-121.940007
sonoma,ca,497776,132.3,40.3,112.9,49.5,38.2,12.4,61020,pacific,1.5766127736170485,76.06594130693324,3.9015541126932596,38.525293,-122.922545
stanislaus,ca,530561,117.9,42.8,104.8,57.4,20.8,21.8,47808,pacific,2.7338986469039375,74.6498517606835,5.421431277459142,37.559145,-120.997685
sutter,ca,95406,117.8,31.7,99.9,56.3,23,17.2,47903,pacific,1.9506110726788672,70.98190889461878,15.049367964278977,39.034523,-121.694842
tehama,ca,63015,117.2,40.6,119.4,65.2,31.7,17.9,43459,pacific,0.625247956835674,86.53495199555661,1.401253669761168,40.125736,-122.233885
trinity,ca,13180,118.4,29.7,92.1,66.6,30.3,22.1,35708,pacific,1.0925644916540211,86.28983308042488,1.5553869499241275,40.650694,-123.112628
tulare,ca,455769,106,36.8,104.6,47.9,15.4,29.6,39657,pacific,1.5931316083366793,79.68532304742095,3.5114279382757494,36.220157,-118.800473
tuolumne,ca,53864,132.1,39.6,104.6,58,39.3,14.6,50774,pacific,1.8992276845388385,88.40412891727313,1.3107084509134115,38.027601,-119.954753
ventura,ca,843110,131.8,36.6,116.4,41.5,27.3,12,76513,pacific,1.7609801805221146,79.43542361020508,7.0867383852640815,34.325358,-119.147678
yolo,ca,209671,132.9,34,109.8,42.3,25.3,17.8,55011,pacific,2.4614753590148375,67.08986936676985,13.875070944479685,38.686646,-121.90162
yuba,ca,73897,112.6,39.5,112.3,68.1,23.9,20.6,41824,pacific,3.058310892187775,72.01510210157382,6.935328903744401,39.269008,-121.351262
adams,co,479977,115.9,40.1,112.5,52.6,16.4,13.2,54876,mountain,3.2028618037947654,82.77771643224571,3.745596143148526,39.87364,-104.337801
arapahoe,co,617668,133.3,34.2,118.7,47.5,19.8,12.3,61092,mountain,10.379362375904208,72.45105784984814,5.591029485095553,39.650038,-104.335247
archuleta,co,12355,131.6,30.4,111.7,31.7,29.4,15.1,44417,mountain,0.9631728045325779,85.67381626871712,0.7203561311210036,37.193596,-107.048329
boulder,co,313961,135.6,30.1,121.3,35.5,23.8,13.5,71405,mountain,0.928140756335978,88.56131812549967,4.478263223776201,40.093574,-105.358571
broomfield,co,62449,116.4,27.8,121.8,48.4,26.6,6.4,79117,mountain,0.9767970664061875,86.5153965635959,6.272318211660715,39.955369,-105.047567
chaffee,co,18507,123.6,24.7,106.8,36.9,41.4,13,48012,mountain,1.2805965310423084,95.85021883611607,0.36202517966174963,38.746903,-106.194067
delta,co,30221,97.1,28.1,105,46.3,17.8,15.1,41730,mountain,0.7180437444161345,94.35491876509712,0.8967274411832832,38.861374,-107.862877
denver,co,663303,131.7,37,129.2,48.5,16.8,18.7,51156,mountain,9.770044760840822,76.95442354399121,3.4962905338887356,39.775594,-104.867427
douglas,co,314238,133.2,33.1,122.4,37.1,29.8,3.6,105192,mountain,1.1243070538890905,90.2465647057326,4.148766221780943,39.329724,-104.929561
eagle,co,52894,115.6,26.6,118.4,28.3,24.8,9.5,78517,mountain,0.7864786176125836,88.5185465270163,0.8337429576133399,39.627826,-106.695299
el paso,co,665171,122.6,35.6,141.1,50.3,28.4,11.4,57072,mountain,6.1286496254346625,80.18855301869745,2.6830694663477512,38.832089,-104.525585
elbert,co,24225,117.7,34.2,110.4,47.5,15.6,6.7,80972,mountain,0.7389060887512899,94.73684210526316,0.7719298245614035,39.28656,-104.135891
fremont,co,46835,121,45.1,128,56.4,27.3,19.7,41412,mountain,5.038966584819046,89.71282160777197,0.8092238710366179,38.472972,-105.439657
garfield,co,57495,122.9,27,99.3,43.2,33.6,12.4,57364,mountain,0.8087659796504044,86.72058439864335,0.7444125576137055,39.599307,-107.903956
grand,co,14490,92.5,23,73,47.5,20.3,11,57312,mountain,0.7936507936507936,92.30503795721187,1.7115251897860593,40.102615,-106.118358
jefferson,co,558810,128.4,33.3,136.7,43.7,25.3,9.1,68161,mountain,1.154596374438539,90.82586209981926,2.669064619459208,39.585248,-105.251574
la plata,co,53994,122.2,29.2,146.1,34.4,28.6,12.4,58675,mountain,0.4481979479201393,88.74319368818757,0.55561729081009,37.286558,-107.843336
larimer,co,325228,129.3,30.6,108.5,39.7,17.2,13.8,59337,mountain,0.901213917620869,91.01953091369747,2.011511923942588,40.666417,-105.461144
logan,co,21862,112.9,40.5,94.6,36.4,26.1,16.9,43561,mountain,2.1955905223675782,92.01353947488793,0.9651450004574147,40.724669,-103.110096
mesa,co,148166,108.8,33.5,112.2,56.1,19.5,15.4,48108,mountain,0.7005655818473874,93.69760943806271,0.6303740399281886,39.01829,-108.46644
montezuma,co,26006,121.4,30.9,130,40.2,19.3,19.1,43655,mountain,0.3999077136045528,82.98854110589863,0.20379912327924324,37.338425,-108.596662
montrose,co,40866,103.7,29.7,91.4,49.6,22.1,15.1,43946,mountain,0.5701561200019576,92.78128517594088,0.7903880976851172,38.402156,-108.269451
morgan,co,28288,109.8,38.8,98.9,49.5,17,13.5,46332,mountain,3.0931843891402715,90.69216628959276,0.5055147058823529,40.262744,-103.809822
otero,co,18440,101.4,49.7,107.6,40.5,24.6,22.5,36811,mountain,0.482646420824295,90.4880694143167,0.9978308026030369,37.902702,-103.716446
park,co,16440,105.2,39.1,122.3,35.8,30.4,10.3,57510,mountain,0.10948905109489052,95.27372262773723,1.137469586374696,39.119303,-105.717175
pueblo,co,162158,122.9,40.4,110.9,49.8,16.4,20.1,41352,mountain,2.2354740438337917,78.13058868510959,0.7825700859655398,38.17342,-104.512846
rio grande,co,11623,104,49.2,124.3,29.2,23.1,17.9,39834,mountain,0.7571195044308698,91.21569302245548,0.36995612148326595,37.582523,-106.38321
routt,co,23980,123.5,31.4,128.7,31.5,24.5,8.9,63763,mountain,0.7464553794829024,94.77064220183486,1.0967472894078398,40.485068,-106.991193
summit,co,29269,81.2,16.7,79.7,14.8,21.1,9.3,63236,mountain,1.021558645666063,88.23328436229458,0.782397758720831,39.634171,-106.116379
teller,co,23472,150.8,34.5,120.9,41.1,33.9,8.4,62725,mountain,0.9202453987730062,94.72989093387866,0.9032038173142468,38.882172,-105.161826
weld,co,278065,115.3,35.3,97.1,45.7,18.2,13.2,58404,mountain,1.1180839012461115,87.53097297394494,1.3130023555643464,40.554828,-104.392533
fairfield,ct,941618,145.1,38.1,141.3,54.9,21.6,9.6,81816,new_england,11.393367586431015,73.76898062696337,5.070208938231852,41.22496,-73.371205
hartford,ct,895699,133.4,41.4,135.7,62,21.5,12.1,63491,new_england,13.446369818432307,72.39463257187961,4.889812314181438,41.806422,-72.732844
litchfield,ct,185141,125.7,40.2,140.4,62.5,25.3,7.2,70519,new_england,1.7035664709599712,93.24946932338055,1.896392479245548,41.792495,-73.245324
middlesex,ct,164438,148.2,38.3,125.9,65.7,27.1,7.3,75335,new_england,4.995195757671585,88.92591736703196,2.9360610077962517,41.435381,-72.523119
new haven,ct,860874,136.4,42,126.9,70.2,18.2,12.8,58672,new_england,12.874009436921083,74.85241742694053,3.9197373831710562,41.348823,-72.89986
new london,ct,272033,137.6,38.8,109.3,68.7,24,9.4,62638,new_england,5.707395793892653,81.3897578602596,4.1476585561310575,41.466779,-72.106497
tolland,ct,151689,137.7,39.2,117.9,62.7,25.4,6.4,73660,new_england,3.0061507426378973,89.14093968580451,4.167078693906611,41.855009,-72.336489
windham,ct,117078,127.4,42.2,84.6,65,18.8,13,55948,new_england,2.2993218196416065,89.8033789439519,1.3281743794735135,41.830029,-71.987488
district of columbia,dc,659009,143,44,169.1,59,8.3,18.8,66326,south_atlantic,48.34501501496945,40.36894792028637,3.6472946499971926,38.904774,-77.016291
kent,de,171474,129,40.7,169.4,79.2,25,13.5,53811,south_atlantic,24.550077562779197,67.04106745045897,2.002052789344157,39.095954,-75.504614
new castle,de,551997,132.4,37.5,152.3,67.3,28.9,11.9,63033,south_atlantic,24.366436774112902,65.08241892618982,5.177745531225713,39.578327,-75.638982
sussex,de,211224,125.4,38.3,137.9,74.2,35.4,14.8,50207,south_atlantic,12.511835776237549,81.80462447449153,1.1428625534977086,38.683297,-75.339542
alachua,fl,256581,135,39.8,107.9,67.8,24.8,25.7,39614,south_atlantic,19.855328336860484,69.64038646665186,5.809471472946165,29.674755,-82.357701
baker,fl,27312,106.7,36.5,127.9,99.5,13.8,18.8,46505,south_atlantic,13.90597539543058,83.6006151142355,0.6517281780902168,30.331071,-82.284587
bay,fl,178361,127.9,37.1,157.6,88.4,21.4,18,45249,south_atlantic,10.757957176737067,82.1328653685503,2.2532952831616777,30.237647,-85.632623
bradford,fl,26919,103.1,37.7,103.6,82.1,23.2,21.8,40668,south_atlantic,19.36921876741335,78.13440320962889,0.6166648092425424,29.94996,-82.168778
brevard,fl,560683,115.8,38.3,102.1,74.2,28.2,15,46677,south_atlantic,10.220748622662004,83.13913566132734,2.3674696753780657,28.300314,-80.701205
broward,fl,1863780,121.3,40,117.7,53.5,18.2,15.2,50343,south_atlantic,28.18015001770595,61.89389305604739,3.518333708914142,26.151856,-80.455886
charlotte,fl,169642,103.3,33.9,93.5,62.3,25.4,14.4,43611,south_atlantic,5.746218507209299,90.06319189823274,1.1571426887209535,26.899846,-81.950308
citrus,fl,140453,112.8,39,111,79.7,24.4,17.3,39285,south_atlantic,3.01951542508882,93.29953792371825,1.6218948687461285,28.84757,-82.520107
clay,fl,200346,120.7,39.7,117.1,79.2,22.4,9.9,57991,south_atlantic,9.865432801253831,81.6776975831811,3.0287602447765365,29.983068,-81.857884
collier,fl,348236,90.5,25.7,86.8,43.3,22,13.4,55584,south_atlantic,6.9780263958924404,87.90417992395962,1.2864838787488944,26.099239,-81.380973
columbia,fl,68198,108.9,39.6,111.9,88.2,21.9,18.8,41722,south_atlantic,17.760051614416845,77.28085867620752,0.8519311416757089,30.224240000000002,-82.621539
desoto,fl,35134,101.4,33.1,99.8,57.7,25.4,33.9,33198,south_atlantic,13.06426823020436,82.65782432970911,0.23054590994478283,27.18632,-81.809301
dixie,fl,16084,114.5,41.9,68.8,100,20.5,27.1,31649,south_atlantic,7.585177816463566,87.64610793334991,0.4041283262869933,29.581242,-83.187032
duval,fl,900890,132.8,44,145.7,78.1,20.3,17.1,47876,south_atlantic,29.414911920434236,61.16396008391702,4.406975324401425,30.335441,-81.648009
escambia,fl,309574,122.6,38.8,109.8,78.4,18.9,17.6,42742,south_atlantic,21.749242507445715,68.64077732626124,2.9169116269454154,30.614396,-87.341364
flagler,fl,102917,121.8,36.4,93.3,67.7,25.7,14.5,47872,south_atlantic,10.937940281974795,81.76686067413547,2.355296015235578,29.47115,-81.292995
gadsden,fl,46153,97.3,33.6,112.8,66.4,11.2,25.3,34348,south_atlantic,55.723354928173684,40.8749160401274,0.4528416354299829,30.579469,-84.613599
gilchrist,fl,17033,114.7,28,61.9,74.3,22.9,21.9,39854,south_atlantic,6.217342805142958,91.88046732812775,0.08806434568191158,29.725823,-82.800367
hardee,fl,27302,103.2,54.3,74.9,69,16.7,28.8,34884,south_atlantic,7.951798403047396,82.25771005787122,0.582374917588455,27.492698,-81.809926
hendry,fl,38376,89,34.8,88.6,65.2,12.6,25.1,37085,south_atlantic,11.929330831769857,76.15697310819262,0.9380863039399625,26.553489,-81.165901
hernando,fl,176797,105.7,34.5,101.2,74.9,24.8,15.6,39280,south_atlantic,5.260835873911888,89.60502723462503,1.105787994140172,28.556171,-82.468489
highlands,fl,98862,105.4,36.5,74,73.3,26.8,20.1,34054,south_atlantic,10.014970362727842,82.54536626813133,1.4687139649207988,27.343404,-81.340971
hillsborough,fl,1323059,121.8,42.7,129.5,69.7,20.8,16.8,49510,south_atlantic,16.585050250971424,71.05541022735947,3.796504917770107,27.906229,-82.346921
indian river,fl,145342,103.1,35.7,98.2,67,32.2,14.1,44326,south_atlantic,9.138445872493842,85.65246109176975,1.221945480315394,27.696391,-80.57409
jackson,fl,48721,61.6,34.3,67.4,48.4,10.2,26.3,36332,south_atlantic,26.71332690215718,69.3048172246054,0.6937460232753844,30.795391,-85.21546
lake,fl,317586,117.7,43.6,129.5,76,22.3,14.5,44244,south_atlantic,9.916054234128708,83.46778510387738,1.823128223536302,28.761471,-81.711299
lee,fl,680970,109.8,32.3,101.2,59.2,22.1,16.3,46605,south_atlantic,8.628427096641555,84.91122956958456,1.5620365067477275,26.57569,-81.915453
leon,fl,284788,117,32.9,117.4,54.8,15.4,21.7,46975,south_atlantic,31.212340407601445,62.138151888422264,3.349157970139191,30.458039,-84.277881
levy,fl,39707,114.2,47.3,80.1,103.5,22.3,23.6,33193,south_atlantic,8.950562873045055,87.71501246631577,0.3979147253632861,29.282206,-82.788613
manatee,fl,353411,110.2,34.3,83.8,59,25.7,16,48066,south_atlantic,8.879746244457586,85.5827917071059,1.8844914278276568,27.477523,-82.35754
marion,fl,340341,127.4,43.1,132.1,82,20.5,19.6,38783,south_atlantic,12.72459092498406,81.78327030830843,1.479986249085476,29.210202,-82.056676
martin,fl,153592,128.2,29.8,116.3,59.6,24.6,13.5,51159,south_atlantic,5.588181676128965,87.08396270639096,1.169982811604771,27.081621,-80.398471
miami-dade,fl,2664418,105,42.8,125.9,44.4,8.4,21,41840,south_atlantic,18.354102096592953,75.64211020943411,1.5765919611712578,25.608968,-80.498667
monroe,fl,77150,107.7,37.1,72.7,54.6,28.1,16.8,50380,south_atlantic,7.145819831497084,88.9449125081011,1.1302657161373948,25.04678,-81.185692
nassau,fl,77187,137,37.6,109.4,81.2,31.6,13.4,56987,south_atlantic,6.410405897366137,90.37791337919597,0.8887506963607862,30.610578,-81.771418
okaloosa,fl,195798,113.3,37.8,91.7,71.8,27.1,13.4,54265,south_atlantic,9.612457737055538,78.8649526552876,2.929039111737607,30.66503,-86.592175
okeechobee,fl,39420,110.3,50.9,73.8,93.3,15.7,25.7,35954,south_atlantic,8.802638254693049,86.90005073566718,1.035007610350076,27.386292,-80.888576
orange,fl,1256055,114.3,42.3,122.1,57.6,17.3,18.2,46675,south_atlantic,20.949003029325944,64.28691418767491,5.162592402402761,28.514423,-81.323478
osceola,fl,311962,105.1,37,114,54.7,16.9,20.7,41592,south_atlantic,11.354267506939948,75.25948673235843,2.63141023586206,28.062665,-81.1495
palm beach,fl,1398757,118.9,32.9,113.2,54.1,21.7,15,51768,south_atlantic,18.27379594883171,74.53110154229792,2.5489059214717065,26.647568,-80.436508
pasco,fl,488310,112.6,40.5,111.1,75.9,25.2,13.5,45454,south_atlantic,5.132804980442751,88.46409043435523,2.380045462923143,28.30674,-82.438868
pinellas,fl,939548,120.4,35.8,93.3,68.9,21.2,15.1,43773,south_atlantic,10.241520390655932,82.48104407651338,3.204945356703436,27.902676,-82.739554
polk,fl,637691,120.9,43,124.9,74.4,28.5,19.3,42447,south_atlantic,15.124096153152546,78.54807422403641,1.7030191738632032,27.948866,-81.697681
putnam,fl,72304,116.7,41.7,110.6,97.2,19.9,26.9,32852,south_atlantic,16.604890462491703,78.79785350741315,0.5864129232131002,29.608635,-81.744304
santa rosa,fl,163903,112.2,32.8,103.4,74.9,22.9,13.8,54876,south_atlantic,5.742420822071591,86.00940800351427,1.8687882467068937,30.692904,-87.018449
sarasota,fl,398011,124.9,32.9,94.9,57.6,30.7,13,48717,south_atlantic,4.544346764285409,91.22411189640488,1.5193047428337407,27.182478,-82.364974
seminole,fl,442905,117,37.4,107.2,54.2,21.6,12.9,55195,south_atlantic,11.352773168060871,79.15692981564895,4.131134216141159,28.716977,-81.236306
st. johns,fl,218362,127.1,30.8,114.2,65.2,31,9.6,66312,south_atlantic,5.206949927185133,89.2623258625585,2.437695203377877,29.912184,-81.409887
st. lucie,fl,293136,104.7,34.6,98.7,64.5,18.6,19,42825,south_atlantic,19.511762458381092,73.73778723868784,1.8196332077943345,27.380866,-80.445603
sumter,fl,113589,110.6,32.1,117.5,65.3,21.6,12,52670,south_atlantic,8.290415445157542,88.66087385222161,0.34950567396490856,28.704822,-82.080995
suwannee,fl,43653,103,38.5,92.6,87.2,20.6,24.6,35666,south_atlantic,13.861590268710055,82.95878862850205,0.2794767828098871,30.195612,-82.991492
union,fl,15159,195.5,118.8,237.4,203.7,33,23.8,40841,south_atlantic,22.29038854805726,74.09459726894914,0.47496536710864834,30.043839,-82.371442
volusia,fl,510806,110.7,37,79.8,70.8,24.7,16.6,40908,south_atlantic,10.553517382333018,83.38057892820366,1.713566402900514,29.063452,-81.148572
wakulla,fl,31314,127.8,42.7,105.7,95.9,15,15.9,47430,south_atlantic,15.17212748291499,82.10065785271763,0.4087628536756722,30.147773,-84.375607
walton,fl,61528,109,35.9,74.9,74.3,21.6,19.3,45357,south_atlantic,4.984722402808478,86.94090495384215,1.1978286308672474,30.618469,-86.171516
washington,fl,24627,72.6,33.6,70.2,74.7,19.3,23.4,35671,south_atlantic,15.726641491046413,80.07065416006822,0.13805985300686238,30.610592,-85.665329
baldwin,ga,45808,97.9,46.9,127.6,73.5,11,31.8,35815,south_atlantic,41.66739434159972,54.30055885434859,1.5324834090115265,33.069276,-83.249591
banks,ga,18336,81.2,57.9,105.6,65.2,39.1,17.4,42495,south_atlantic,2.448734729493892,93.51548865619546,1.2761780104712042,34.354134,-83.497372
barrow,ga,73340,105,35,115.9,89.6,26.2,14.4,54668,south_atlantic,11.270793564221435,79.8677392964276,3.48786473956913,33.993196,-83.712755
bartow,ga,101942,124.2,52.3,115.5,91.3,23.1,19.1,46330,south_atlantic,10.95034431343313,83.39055541386278,0.8318455592395676,34.237855,-84.840499
bibb,ga,154194,124.7,47.8,167.8,79.4,10.8,29.2,36816,south_atlantic,53.88795932396851,41.99060923252526,1.8457268116787942,32.806498,-83.69742
brantley,ga,18403,73.5,42.2,76.6,87.8,20.1,22.5,36758,south_atlantic,2.858229636472314,94.49546269629951,1.2606640221702983,31.196876,-81.981895
bryan,ga,34104,111.5,52.4,111.8,84.3,28.2,10.1,66066,south_atlantic,15.197630776448511,78.39549612948628,1.803307529908515,32.013224,-81.442472
bulloch,ga,73141,113.2,31.9,73.7,78.6,18.2,30.6,36484,south_atlantic,28.522989841538944,66.03546574424742,1.484803325084426,32.396814,-81.743182
burke,ga,22838,120.3,56.9,123.7,85.9,13.1,32,32675,south_atlantic,49.207461248795866,47.99457045275418,0.26272002802346966,33.061154,-82.000781
butts,ga,23479,104.8,39,161.4,95.7,18.6,22,43330,south_atlantic,28.30188679245283,69.30874398398569,0.5707227735423144,33.287851,-83.95717
camden,ga,52092,119,42.5,128.7,67.4,19.1,15.6,49098,south_atlantic,18.22928664670199,74.51240113645089,1.3169008676956155,30.92249,-81.636389
carroll,ga,113756,115.8,48.9,117.5,83.9,27.9,17.9,45493,south_atlantic,18.376173564471326,75.37360666690108,0.8544604240655438,33.582798,-85.079763
catoosa,ga,65645,91.5,29.7,89.5,65.6,20.5,16,50847,south_atlantic,2.5653134282885217,93.21349683905858,1.450224693426765,34.903657,-85.138247
chatham,ga,282613,130,42,136.1,65.2,24,20.3,45254,south_atlantic,39.80708601515146,53.32203401825111,2.572422358490232,31.974022,-81.092425
chattooga,ga,25046,86,52.5,132.1,101.5,17.5,28.3,34440,south_atlantic,10.724267348079534,86.73640501477281,0.6108759881817456,34.475015,-85.345291
cherokee,ga,230629,126.9,34.8,138.6,73.2,46,11,67686,south_atlantic,6.475334845140897,86.7423437642274,1.736988843553933,34.243929,-84.476203
clarke,ga,122037,129.7,40.5,170.7,61.8,21.1,37.2,32864,south_atlantic,27.241738161377288,63.88800117997001,4.370805575358293,33.951168,-83.367332
clayton,ga,270269,128.2,44.6,156.3,65.1,10.2,25.4,40606,south_atlantic,68.08661000706704,19.59344208917782,5.189274389589631,33.541901,-84.357654
cobb,ga,728388,132.8,39,142.4,60.3,36.4,13.8,62866,south_atlantic,26.73629988412769,60.68112050171062,5.034130161397497,33.941463,-84.576673
coffee,ga,43042,99.5,41.5,108.9,79.5,14.9,28.2,33615,south_atlantic,28.121369824822267,67.2924120626365,0.7945727429022815,31.549272,-82.849201
colquitt,ga,46002,111,43.2,133,89.5,11.5,25.9,33095,south_atlantic,22.268597017520978,66.69057867049258,0.8325724968479631,31.18839,-83.768848
columbia,ga,139904,119.5,35.8,112.1,61.4,23.2,8.3,72531,south_atlantic,16.62068275388838,75.15510635864592,3.9991708600182982,33.544121,-82.264062
coweta,ga,135625,111.6,38.3,118.8,65,29.9,13.7,61469,south_atlantic,17.631705069124425,76.66580645161291,1.640552995391705,33.353462,-84.763361
crisp,ga,23061,98.7,46.7,115.2,72.3,15.9,30.7,30481,south_atlantic,43.08139282771779,53.70105372707168,1.2792159923680673,31.922932,-83.768104
dawson,ga,22939,121,37.7,98.7,74.1,40.1,15.2,52804,south_atlantic,0.6931426827673395,95.22211081564149,0.35311042329656916,34.444298,-84.170636
decatur,ga,27237,109.9,44.8,139.9,70.4,12.6,26.6,34102,south_atlantic,41.93927378198774,52.68201343760326,0.45526306127693944,30.878344,-84.57907
dekalb,ga,723902,136.4,41.4,161.5,53.2,18.1,19.9,49894,south_atlantic,54.284557854516216,34.833720586488226,5.942378940795853,33.771529,-84.226408
dougherty,ga,92326,122.4,47.1,197.6,73.4,11.1,31.3,31575,south_atlantic,68.52565907761627,27.852392608799256,0.8415830860212724,31.533374,-84.216254
douglas,ga,138283,117.7,45.7,133.6,81.1,20.1,17.9,51941,south_atlantic,43.474613654606856,49.50717007875154,1.643730610414874,33.701828,-84.767973
early,ga,10480,106.8,45.4,184.2,61.5,24.5,27.4,32357,south_atlantic,50.467557251908396,46.89885496183206,0.6393129770992366,31.322833,-84.903643
effingham,ga,55852,131.3,50.6,90.6,85.2,29.7,11.8,61062,south_atlantic,13.098904246938337,82.65773830838646,0.9131275513858054,32.36731,-81.34134
elbert,ga,19394,103.1,52.2,134.3,73.4,18,23.4,34487,south_atlantic,30.344436423636175,66.68557285758482,0.33515520263999177,34.116793,-82.840095
emanuel,ga,22723,117.2,50.3,93.6,67.6,16.6,34.1,30348,south_atlantic,34.01839545834617,61.04387624873476,0.33886370637679886,32.589762,-82.301708
fannin,ga,24017,112.6,40.3,106,73.2,27.9,22.5,35673,south_atlantic,0.19569471624266144,97.16450847316484,0.6162301702960403,34.864098,-84.319857
fayette,ga,109495,140.4,31.9,131.2,47.4,36,7.2,81368,south_atlantic,20.92880953468195,70.26439563450386,4.333531211470843,33.413943,-84.494191
floyd,ga,96199,119.8,41.6,143,81.1,18.8,22.2,39381,south_atlantic,14.534454620110397,76.68270979947816,1.3711161238682315,34.263163,-85.214279
forsyth,ga,203841,132.2,41.3,132.8,60.6,50.7,7.7,87565,south_atlantic,2.935621391182343,84.07484264696504,9.38133152800467,34.225546,-84.125018
franklin,ga,22188,131.8,56.6,123.8,81.4,28.7,20.9,40114,south_atlantic,9.460068505498468,86.00144222102037,0.6850549846764017,34.375436,-83.229175
fulton,ga,996757,135.3,39.7,170.4,54.5,27.7,18.2,55474,south_atlantic,44.0711226507564,45.239612061916795,6.44108844984284,33.790284,-84.466986
gilmer,ga,28956,96.5,38.7,114.6,76.1,30.5,25.1,39323,south_atlantic,0.8564718883823732,90.4268545379196,0.6699820417184694,34.691178,-84.455627
glynn,ga,82623,116.5,40.1,131.9,71.9,18.5,20.3,43533,south_atlantic,25.43359597206589,66.94867046706123,1.1376977354973796,31.213242,-81.493698
gordon,ga,56079,117.5,44,95.9,94.7,23.2,18.4,42291,south_atlantic,4.1655521674780225,89.7769218424009,1.0806184133097951,34.503359,-84.875753
grady,ga,25145,100.6,56.3,101.4,74,11.7,25.7,35212,south_atlantic,28.689600318154703,65.80234639093258,0.5448399284151919,30.874673,-84.234426
greene,ga,16535,146.1,39.2,121.4,69.9,31.2,23.1,42842,south_atlantic,36.22618687632295,59.76413667977018,0.8104021771998791,33.578784,-83.166655
gwinnett,ga,874242,129.1,37.8,136.9,51.8,27.5,13.7,59081,south_atlantic,26.086255293156814,51.69632664639768,11.140393620988238,33.961729,-84.023624
habersham,ga,43724,120.3,49,132.3,64.4,32.2,21.2,40530,south_atlantic,3.277376269325771,87.17866617875767,2.4197237215259353,34.631021,-83.531116
hall,ga,190482,117.8,40.5,132.6,61.2,40.1,20.8,46986,south_atlantic,7.475771988954337,83.05299188374755,1.767096103568841,34.316889,-83.819681
haralson,ga,28667,94.6,49.5,108.7,94.4,32.2,22.2,39548,south_atlantic,4.751107545261101,91.9314891687306,0.8162695782607179,33.794233,-85.211026
harris,ga,32992,118.9,39.2,148.5,62,25.4,10.6,60977,south_atlantic,15.779582929194957,79.15555286129971,1.024490785645005,32.736004,-84.908988
hart,ga,25518,98.8,45.9,97.5,69,24.3,20.8,40225,south_atlantic,19.05321733678188,77.32189043028451,0.9992946155654832,34.350898,-82.964248
henry,ga,214171,129.3,42,176.6,60.3,24.2,11.6,60087,south_atlantic,40.25148129298551,51.76144295913079,3.227794612716007,33.452986,-84.154184
houston,ga,149137,113.5,48.5,118.3,73.2,16.7,15.4,52297,south_atlantic,29.552693161321468,61.97321925477916,2.8584455902961707,32.459007,-83.666243
jackson,ga,62131,131.7,48.5,130.9,78.4,33.3,14,52385,south_atlantic,6.977193349535659,87.86113212406045,1.8042523056123352,34.133883,-83.566348
jasper,ga,13571,142.8,41.2,127.5,78.7,29.9,19.7,42343,south_atlantic,20.477488762803034,75.5876501363201,0.5526490310220322,33.316434,-83.68809
jefferson,ga,16201,112.8,56.3,145.5,62.8,16.9,27.5,29152,south_atlantic,54.07073637429788,43.207209431516574,0.20369113017714957,33.054844,-82.418151
lamar,ga,18195,130.1,46.4,165.3,86.5,18.4,19.7,40915,south_atlantic,29.45314646881011,65.93020060456169,0.7034899697719154,33.076536,-84.139463
laurens,ga,47802,118.2,42.9,121.9,69.5,13.6,29.1,33974,south_atlantic,36.6093468892515,60.86774611940923,1.1024643320363166,32.463657,-82.922238
lee,ga,29134,116.5,53,160.8,83.2,29.7,11.6,63272,south_atlantic,19.492688954486166,74.97082446625936,2.3786641037962517,31.779507,-84.141134
liberty,ga,63949,98.3,47.3,147.5,76.8,12,20,40175,south_atlantic,41.2782060704624,46.776337393860736,2.165788362601448,31.807229,-81.456256
lowndes,ga,113898,125.3,40.8,206.4,65.3,19.7,26.3,37138,south_atlantic,36.408014188133244,57.963265377794166,1.8613145094733885,30.833857,-83.267708
lumpkin,ga,31094,116.1,37.2,122.3,72.3,44.9,21.5,42919,south_atlantic,1.9135524538496174,94.57451598379109,0.3794944362256384,34.572186,-84.00265
madison,ga,28362,119.9,59.5,116.8,90.4,27.7,18.7,43611,south_atlantic,8.70178407728651,84.71899019815245,1.195261265072985,34.127784,-83.209037
mcduffie,ga,21558,121.4,45.5,153.8,69.5,13.5,23.7,37328,south_atlantic,40.80155858613971,55.32053066147138,0.22729381204193339,33.482855,-82.481371
mcintosh,ga,13941,78.7,30.8,121.6,55,24.5,23.1,36346,south_atlantic,35.13377806470124,61.77462161968295,0.17932716447887526,31.483806,-81.375566
meriwether,ga,21195,126.2,65.8,129,66.8,16.1,27.2,34962,south_atlantic,39.93394668553904,56.92852087756546,0.6369426751592356,33.040656,-84.688312
monroe,ga,27044,109.4,38.5,160.9,72.7,12.7,13.9,54793,south_atlantic,23.898091998225116,73.217719272297,0.9133264310013312,33.013897,-83.918682
morgan,ga,17943,135.9,52.6,145.6,65.5,33,17.1,48337,south_atlantic,23.62481190436382,74.17377250181129,0.03901242824499805,33.590825,-83.492382
murray,ga,39358,97.7,36.3,82,103.1,19.9,21.9,40343,south_atlantic,0.9832816708166066,96.71985365110015,0.4166878398292596,34.788447,-84.748094
muscogee,ga,200303,136.3,48.1,171.6,70.3,21.3,22.9,40414,south_atlantic,45.05973450222912,45.315846492563765,2.3878823582272855,32.509961,-84.877041
newton,ga,103901,121.1,45.7,154.6,78.9,28,15,50862,south_atlantic,43.004398417724566,52.8406848827249,1.023089286917354,33.555049,-83.850187
oconee,ga,35071,134.3,33.7,192.9,46.8,29.5,8.6,72478,south_atlantic,5.862393430469619,89.10495851273132,3.837928773060363,33.834939,-83.437054
oglethorpe,ga,14743,112.8,50.2,122.1,75.4,21.4,17.6,44026,south_atlantic,16.713016346740826,78.66784236586855,0.535847520857356,33.880648,-83.080703
paulding,ga,149830,123.1,44.2,118.5,77.7,26.7,11.6,60008,south_atlantic,18.312754455049056,76.91517052659681,0.999799773076153,33.920546,-84.867288
peach,ga,26907,136.4,59,128.5,77.9,13.4,21.1,42602,south_atlantic,45.26331437915784,48.06555914817705,1.1186680046084663,32.568778,-83.826878
pickens,ga,29992,104,37.5,142.2,82.3,48.6,15.1,53332,south_atlantic,1.1969858628967724,95.79887970125367,0.5801547079221125,34.46432,-84.465639
pike,ga,17843,94.6,49.5,156.7,75.6,23.7,13.8,52393,south_atlantic,10.491509275346074,87.9504567617553,0.46516841338339965,33.092265,-84.389235
polk,ga,41263,124.2,50.8,143.2,102,17.6,22.5,38730,south_atlantic,12.284613333979594,76.75399268109445,0.5840583573661634,34.001784,-85.188153
putnam,ga,21259,114.9,44.9,134,74.4,26.2,19,42934,south_atlantic,26.17244461169387,67.62782821393293,0.43746178089279836,33.321767,-83.372841
rabun,ga,16312,125.9,44.7,135.3,67.1,23.2,19.4,38114,south_atlantic,2.1211378126532616,92.26949485041688,0.6804806277587052,34.881682,-83.402137
richmond,ga,201418,134.5,34.5,131.4,72.7,13.2,27.7,36069,south_atlantic,55.75867102245083,38.54918626935031,1.6840600144972147,33.359635,-82.073549
rockdale,ga,87569,127.5,37.8,158.3,60.7,21,16.8,50646,south_atlantic,50.58753668535669,43.64786625403967,1.982436707053866,33.654235,-84.026608
screven,ga,14114,114.9,64.8,113.1,79.1,18.6,27.9,35087,south_atlantic,41.66784752727788,55.979878135184926,0.21964007368570215,32.750587,-81.611935
spalding,ga,64006,122.1,50.6,173.8,74.3,20,21.1,39068,south_atlantic,32.967221822954095,62.97690841483611,0.9624097740836797,33.260869,-84.28416
stephens,ga,25584,101.5,56.4,111.1,76.8,30.2,20.4,36318,south_atlantic,12.640712945590995,84.23233270794246,0.42213883677298314,34.553944,-83.293433
sumter,ga,31070,136.6,45.6,158.7,63.1,13.9,36.1,32474,south_atlantic,52.00836820083682,42.14676536852269,1.248793047956228,32.039969,-84.197041
tattnall,ga,25260,124.8,56.1,109.7,100.8,14.2,28.3,35983,south_atlantic,29.156769596199524,60.75613618368963,0.20981789390340458,32.045748,-82.058176
thomas,ga,44977,115.6,39.5,144.9,74.5,11.8,20.4,38914,south_atlantic,36.01618605064811,60.48869422149098,0.7448251328456766,30.863682,-83.919313
tift,ga,40691,139.3,43.3,143,71.4,24.4,31.3,33902,south_atlantic,29.375046078985527,63.9084809908825,1.3688530633309577,31.457438,-83.526594
toombs,ga,27160,116.4,34.4,163.5,74,14.4,28.3,32311,south_atlantic,25.257731958762886,64.30780559646539,0.9462444771723122,32.12172,-82.331293
towns,ga,10976,125.5,34.2,178.2,62.4,51.6,18.1,39854,south_atlantic,1.2481778425655976,96.52879008746356,0.15488338192419826,34.916652,-83.737279
troup,ga,69314,130.8,45.7,150.9,71.1,13.4,23.8,42044,south_atlantic,34.665435554144906,59.951813486452956,1.7904030931702108,33.03351,-85.028337
union,ga,22033,121.2,37,151.9,70.4,35.3,16.9,39677,south_atlantic,0.6490264603095357,97.00449326010984,0.7624926246993147,34.83401,-83.990756
upson,ga,26394,111.2,51.4,160.8,87.8,18.2,22.3,34709,south_atlantic,28.21095703568993,70.07653254527544,0.6706069561263923,32.88127,-84.299344
walker,ga,68143,101.7,31.7,85.5,84.3,17.6,17.3,40512,south_atlantic,4.327663883304228,92.5274789780315,0.43144563638231365,34.735659,-85.300985
walton,ga,87436,113.1,40.4,138.2,67.9,32.2,14.2,54294,south_atlantic,16.728807356237706,79.28084541836314,1.371288714030834,33.781557,-83.733847
ware,ga,35671,110.9,37.2,119.6,70.6,12.1,27.6,32211,south_atlantic,29.194583835608757,65.85741919206077,1.0905217123153261,31.053632,-82.423676
washington,ga,20680,124,48.1,168.8,68.2,12.6,26.5,36807,south_atlantic,52.95938104448743,45.193423597678915,0.38684719535783363,32.969536,-82.795899
wayne,ga,30006,114.1,47.1,106.1,76.2,14.6,25.3,38081,south_atlantic,20.5125641538359,74.65506898620276,0.19996000799840033,31.551433,-81.916759
white,ga,28140,129.1,40.6,107.7,69.8,52.8,19,41337,south_atlantic,2.4697938877043355,94.32125088841507,0.24520255863539445,34.64636,-83.747115
whitfield,ga,103653,96.3,34,102.9,77.6,23.8,19.9,39946,south_atlantic,3.824298380172306,88.3457304660743,1.4017925192710292,34.805612000000004,-84.967221
worth,ga,20988,111.8,49,142.7,70.8,23.7,23.1,36616,south_atlantic,29.383457213645894,68.94892319420622,0.476462740613684,31.551512,-83.850876
hawaii,hi,193680,125.1,37.1,63.7,44.9,25.5,19.5,47377,pacific,0.6262907889301942,33.17585708384965,22.313610078479968,19.602397,-155.522886
honolulu,hi,986999,138.3,46,106.9,48.3,16.4,9.6,72649,pacific,2.3641361338765288,21.15807614800015,42.898219755035214,24.053316,-165.802325
kauai,hi,70447,113.6,41.4,110.7,45.2,17.6,11.8,55844,pacific,0.678524280664897,32.963788379916814,34.92838587874572,22.010213,-159.709858
maui,hi,162456,132,45.2,72.1,43.2,36.8,10.7,62277,pacific,0.5207563894223667,35.27539764613188,28.384916531245384,20.865832,-156.58774
allamakee,ia,14001,111.8,45.7,130.4,39.9,28.3,13.9,44673,west_north_central,0.8427969430754946,96.4002571244911,0.4356831654881794,43.284284,-91.378092
appanoose,ia,12602,80.6,57.2,86.3,78.5,22.9,17.2,37683,west_north_central,0.4840501507697191,97.51626725916522,0.49198539914299316,40.743163,-92.86861
benton,ia,25720,127,34.9,92.3,67.5,32.1,8.8,59179,west_north_central,0.5443234836702955,97.77216174183515,0.307153965785381,42.080186,-92.065691
black hawk,ia,132821,122.1,40.4,132.4,72.5,26,16.7,46281,west_north_central,8.867573651756876,85.08820141393304,1.963544921360327,42.470096,-92.30882
boone,ia,26411,99.6,30.9,118.8,61.3,20.7,11.3,52578,west_north_central,1.226761576615804,96.9974631782212,0.13630684184620045,42.036549,-93.931671
bremer,ia,24663,122.9,35.9,105.4,41.6,26.2,6.5,61665,west_north_central,1.074484044925597,96.33053562015975,0.8758058630336942,42.774587,-92.318055
buchanan,ia,21031,125.5,37.5,107.3,82.8,19.3,9.2,54383,west_north_central,0.34235176644001714,97.56549854975988,0.49450810708002474,42.470778,-91.837839
buena vista,ia,20445,122.6,43.2,142.9,40.9,14.6,12.5,47514,west_north_central,2.9395940327708487,79.81902665688432,8.432379554903399,42.735494,-95.151149
butler,ia,14933,98.1,41.3,105.7,45.4,27.7,9.3,53920,west_north_central,0.30134601218777207,98.09147525614411,0.5625125560838412,42.731566,-92.790193
calhoun,ia,9876,159.4,50.6,148.4,54.6,33.2,14,47351,west_north_central,1.6605913325232888,96.19279060348319,0.26326447954637505,42.385185,-94.640414
carroll,ia,20555,94.8,45.7,120,60.8,26.3,9.5,51328,west_north_central,1.420578934565799,97.14911213816589,0.07783994162004379,42.036238,-94.860559
cass,ia,13433,94.1,64.2,128.7,73.2,21.2,14.8,45191,west_north_central,0.26055237102657636,97.6475843073029,0.5285490955110549,41.331488,-94.927827
cedar,ia,18389,118.3,45.8,144.2,66.5,26.5,7.4,58530,west_north_central,0.5873076295611507,97.07977595301539,0.810267007450106,41.772321,-91.132412
cerro gordo,ia,43303,115.5,46.7,124.2,65.8,24.2,11.9,46063,west_north_central,1.574948617878669,94.89642749924947,1.12694270604808,43.081558,-93.260818
chickasaw,ia,12164,97.9,44.1,124,52.9,23.7,10.6,50342,west_north_central,0.739888194672805,98.20782637290365,0.3288391976323578,43.060041,-92.317664
clay,ia,16478,143,43.7,141,57.8,21.6,10.7,51399,west_north_central,0.4430149289962374,95.70336205850225,0.18206092972448112,43.08258,-95.150919
clayton,ia,17735,118.3,47.5,111.4,60.3,19.6,12,48626,west_north_central,0.6202424584155625,97.98139272624753,0.45108542430222726,42.844749,-91.341433
clinton,ia,47972,116.3,50.1,106.2,64.1,30.8,13.9,49702,west_north_central,2.676561327441007,93.8464104060702,0.6524639372967564,41.898036,-90.531972
crawford,ia,17147,94.2,43.9,150.2,54.8,15.6,13,48555,west_north_central,1.6679302501895374,92.43016271067825,0.29159619758558347,42.037212,-95.381968
dallas,ia,78074,138.9,31.7,112,61.6,20.4,6,79309,west_north_central,1.1681225504009016,91.36972615723545,3.8220150113994418,41.684886,-94.039737
delaware,ia,17445,117.6,34.4,97.6,38.4,34,10.1,54587,west_north_central,0.18916595012897677,98.33190025795356,0.36113499570077384,42.471211,-91.36735
des moines,ia,40114,132.6,44.9,124.8,86.7,28.1,12.3,42882,west_north_central,5.581592461484768,90.85606022834921,0.44622824948895645,40.923183,-91.181471
dickinson,ia,17046,136.3,51.8,130.8,59.6,35.3,8.7,58610,west_north_central,0.36372169423911765,97.51261292971958,0.299190425906371,43.377985,-95.15083
dubuque,ia,96359,132.4,38.6,131.9,59.4,37.1,12.8,51907,west_north_central,2.668147241046503,93.37477557882502,1.2764765097188637,42.468822,-90.882522
emmet,ia,9820,93.3,50.7,145.9,69.8,36.4,14.7,46892,west_north_central,1.4358452138492872,96.16089613034623,0.3054989816700611,43.378022,-94.67848
fayette,ia,20391,115.7,54.8,118.8,59.9,20.5,13.9,44739,west_north_central,1.3241135795203767,95.61571281447698,0.7552351527634741,42.862592,-91.844321
floyd,ia,16004,158.9,45.7,127.5,65.7,32.4,12.1,48964,west_north_central,1.699575106223444,94.74506373406648,1.6433391652086977,43.059921,-92.789003
greene,ia,9083,164,61.8,124.2,63.7,25.3,12.8,47936,west_north_central,0.15413409666409777,97.84212264670263,0.484421446658593,42.036239,-94.396836
grundy,ia,12373,125.7,43.3,138.8,48.7,30,6.9,61381,west_north_central,0.33944879980602927,98.35124868665643,0.622322799644387,42.401865,-92.791418
hamilton,ia,15227,92.2,45.9,136.4,64.7,24.5,10.1,50867,west_north_central,0.6370263348000262,93.340776252709,2.541538057398043,42.383772,-93.706809
hancock,ia,11006,107.8,56.1,137.7,58.8,40.8,10.1,54835,west_north_central,0.781391968017445,96.86534617481374,0.3634381246592768,43.081886,-93.734272
hardin,ia,17324,133.9,46.8,147.6,58.5,21.8,11,51907,west_north_central,1.241052874624798,95.90741168321404,0.6811359963057031,42.38388,-93.240402
harrison,ia,14335,110.7,62.4,95.6,86.4,22.8,10.6,53764,west_north_central,0.048831531217300314,97.50959190791768,0.3069410533658877,41.682853,-95.816921
henry,ia,19941,108.3,57.6,97.9,70.4,20.9,14.2,50084,west_north_central,2.1011985356802567,91.89609347575347,2.647811042575598,40.987938,-91.544524
iowa,ia,16326,127.8,44,125.2,47.5,43.1,10.1,58028,west_north_central,0.6431459022418229,97.83167952958472,0.15925517579321327,41.686323,-92.065524
jackson,ia,19529,134.4,54.4,154,66.1,36.8,11.8,46180,west_north_central,0.3584412924368887,97.01981668288187,0.39940601157253314,42.171743,-90.574229
jasper,ia,36715,133.2,48.1,105.2,72.4,14.6,9.8,55492,west_north_central,1.4980253302464932,95.80280539289119,0.5202233419583276,41.686039,-93.053765
jefferson,ia,17662,106.4,45.7,96.2,49.5,15.3,16.1,41942,west_north_central,5.724153549994338,84.0165326690069,4.671045181746122,41.03176,-91.948877
johnson,ia,142006,137.6,39.9,121.9,50.5,29.9,16,53204,west_north_central,6.102559046800839,83.26408743292536,6.152556934214047,41.671551,-91.588085
jones,ia,20481,129.8,50.8,103,57.8,21.2,10.2,54749,west_north_central,2.1043894341096627,95.59103559396515,0.5077877056784337,42.12124,-91.131435
keokuk,ia,10234,119.7,50.1,78.8,68.1,26.3,13.3,47626,west_north_central,0.009771350400625366,97.96755911666992,0.4983388704318937,41.336465,-92.178643
kossuth,ia,15226,148.8,50.9,82,58,39.5,9.8,55972,west_north_central,0.45317220543806647,97.32037304610535,0.5713910416393012,43.20413,-94.20672
lee,ia,35172,123.4,51,138.5,73.2,26.5,16.2,45307,west_north_central,2.578755828499943,93.55737518480609,0.3781417036278858,40.641976,-91.479264
linn,ia,218076,126.6,40.9,102.2,65.7,27.5,9.7,56503,west_north_central,4.665346026156019,89.5334653973844,2.140079605275225,42.078948,-91.598965
mahaska,ia,22324,95,59.7,120.3,79.1,21.5,14,48978,west_north_central,1.4961476437914352,95.68625694320015,1.0661171833004839,41.335203,-92.640909
marion,ia,33197,126.5,57.8,117.7,57.4,16.9,9.3,56883,west_north_central,0.6325872819833117,95.93939211374521,1.0723860589812333,41.334451,-93.099437
marshall,ia,40735,100.4,48,114.8,65.8,24.2,13.4,51382,west_north_central,1.2544494906100405,83.4859457469007,3.088253344789493,42.035849,-92.998771
mills,ia,14841,110.8,45.3,114,73.1,27.7,10,56504,west_north_central,0.7479280371942592,97.43278754800889,0.14823798935381713,41.033452,-95.621327
mitchell,ia,10757,103.2,47.5,121.6,48.2,44,10.2,53049,west_north_central,0.08366644975364879,97.87115366737937,0.3718508877939946,43.356412,-92.789031
monona,ia,9013,121.3,52.1,110.6,58.3,33.2,12.5,41461,west_north_central,0.5547542438699656,96.98213691334739,0.11095084877399312,42.051666,-95.959923
muscatine,ia,42949,121.9,51.4,139.4,62.8,27,12.7,54025,west_north_central,1.7346154741670354,91.39444457379683,1.1036345432955366,41.483922,-91.112756
o'brien,ia,14055,101.5,44.5,123.1,53.2,26.1,9.4,57287,west_north_central,0.4838135894699395,94.49306296691569,0.8609035930273924,43.083753,-95.624878
page,ia,15552,104.4,55,149.5,98,29.7,17.3,47438,west_north_central,2.436985596707819,94.31584362139918,1.1574074074074074,40.739144,-95.150175
palo alto,ia,9155,132.4,43.3,94.6,61.1,33.1,10.8,49536,west_north_central,1.813216821409066,96.48279628618242,0.5024576734025122,43.082064,-94.678137
plymouth,ia,24972,96.1,54.5,123.4,54.9,44.4,8.3,58113,west_north_central,0.48854717283357363,95.41886913342944,0.5686368732980939,42.737847,-96.214027
polk,ia,459159,133.2,43.8,117.4,75.3,19.1,12.4,59388,west_north_central,6.400832826972792,85.02827996402118,4.097273493495718,41.685505,-93.573534
pottawattamie,ia,93198,119.4,48.2,100.4,84.6,19.9,13.6,50570,west_north_central,1.4506749071868494,94.322839545913,0.6824180776411511,41.336612,-95.542394
poweshiek,ia,18622,112.7,52.6,102.4,43.4,16.6,12,50799,west_north_central,1.788207496509505,94.68370744280958,2.003007195789926,41.686442,-92.531468
scott,ia,171116,124.9,42.9,120.1,72.7,26.7,14.2,54444,west_north_central,7.7456228523340895,85.90020804600388,2.4112298090184434,41.637098,-90.623243
shelby,ia,11944,129.4,63.7,104,52.4,21,9.4,54740,west_north_central,0.4102478231748158,96.14869390488948,0.3097789685197589,41.685093,-95.310211
sioux,ia,34621,125.9,35.8,121.1,43.1,31.2,8.2,61817,west_north_central,0.4217093671471073,92.86271338205135,0.7105513994396464,43.082617,-96.177883
story,ia,94834,127.6,42.8,150.7,56,25.8,21.1,53782,west_north_central,2.2523567496889303,87.56353206655841,6.878334774447983,42.036241,-93.465045
tama,ia,17423,123.3,37.7,118.1,65.3,21.3,11.5,53844,west_north_central,0.5050794926246915,88.62997187625552,0.3443723813350169,42.079812,-92.532543
taylor,ia,6209,143.8,50.8,96.2,57.9,43.8,14.1,45009,west_north_central,0.19326783701079078,95.98969238202609,0.7086487357062329,40.737432,-94.696415
union,ia,12539,121.8,44.5,80,74.3,20,13.5,43357,west_north_central,0.9889145864901507,97.36023606348193,0.645984528271792,41.02773,-94.242379
van buren,ia,7380,101.4,49.4,56.7,75.4,46.2,16.2,43019,west_north_central,0.5826558265582655,97.95392953929539,0.04065040650406504,40.753229,-91.949987
wapello,ia,35242,125.6,52.4,107.6,78.5,20.7,19.9,40629,west_north_central,2.357981953351115,90.80926167640882,0.9165200612905057,41.030585,-92.40945
warren,ia,48170,144.3,44.5,118.2,69.5,18.4,7,66328,west_north_central,0.40066431388831225,96.78015362258667,0.4774756072244135,41.334373,-93.561359
washington,ia,22115,127.7,39.8,116.3,52.9,27.6,9.3,54480,west_north_central,0.8817544652950486,96.45941668550758,0.4657472303866154,41.335591,-91.717868
webster,ia,37050,108.6,40.2,132.9,67.6,21,15.9,45202,west_north_central,4.512820512820513,91.53036437246963,1.1686909581646423,42.427966,-94.181788
winnebago,ia,10580,108.6,46.4,100.6,61.3,22.8,11.1,50383,west_north_central,0.7466918714555766,95.34971644612476,1.1247637051039698,43.377568,-93.734195
winneshiek,ia,20789,116.1,41.7,130.1,36,29.2,10.9,53194,west_north_central,0.8562220405021886,96.80119293857328,1.173697628553562,43.290675,-91.843707
woodbury,ia,102426,109.5,46.8,131.7,71.5,25.2,16.5,45678,west_north_central,3.074414699392732,86.19979302130318,2.764922968777459,42.389729,-96.044795
wright,ia,12891,125.2,51.6,99.4,56.1,24.9,10.6,49369,west_north_central,0.4887130556202001,93.25886277247692,0.5662865565122954,42.733119,-93.735146
ada,id,425798,129,35.2,146.8,52.2,30.1,13.6,53420,mountain,1.23368357765889,91.31395638307366,2.495079826584437,43.451118,-116.241086
bannock,id,83815,103.7,34.8,108.8,41,21.4,17.7,42665,mountain,0.6311519417765317,90.1509276382509,1.2432142217980076,42.668507,-112.224629
benewah,id,9068,107.9,41.9,94.8,79,23.3,16.5,39530,mountain,0.23158359064843406,86.94309660344067,1.1358623731804147,47.217551,-116.658826
bingham,id,45261,110,45.3,133.2,38.7,18.1,14.1,47721,mountain,0.31373588740858577,85.08649830980315,1.029583968538035,43.216516,-112.398053
blaine,id,21427,130.5,19.7,111.2,22.6,49.3,9.9,67936,mountain,0.11667522284967564,92.01941475708219,1.1340831660988473,43.412325,-113.980397
bonner,id,41389,121,41.7,107.5,54.3,24.8,17,41797,mountain,0.1038923385440576,95.39249559061587,0.5291260963057818,48.299758,-116.600801
bonneville,id,108989,103.7,34.2,138.1,35.7,28.3,12,50559,mountain,0.4367413225187863,89.69529035040233,0.8927506445604603,43.387732,-111.614925
canyon,id,202782,106.7,38.5,138.1,56.1,26.1,20.1,42237,mountain,0.41522423094752,88.89250525194544,0.8309416023118422,43.625134,-116.709293
cassia,id,23441,113.8,18.8,103.8,34,20,15.3,44160,mountain,0.18770530267480057,93.827055159762807,0.4351350198370377,42.283919,-113.60035
clearwater,id,8528,87.5,36,128.4,55.4,24.4,17.8,40068,mountain,0.21106941838649157,94.0548780487805,0.6449343339587242,46.673693,-115.656891
elmore,id,26103,103.7,48.2,121.7,72.4,22.7,16.6,42680,mountain,2.63188139294334,84.63778109795808,2.942190552810022,43.3539,-115.469179
fremont,id,12896,94.2,47.4,136.1,40.4,24.7,16.7,44130,mountain,0.31792803970223327,93.71898263027295,0.14733250620347393,44.228805,-111.481909
gem,id,16853,145.3,40.4,135.8,67.1,27.8,18.4,44173,mountain,0,93.7696552542574,0.7654423544769478,44.061691,-116.397227
gooding,id,15157,137.6,40.5,151.6,66.9,23.9,16.3,41310,mountain,0.07917133997492908,88.38820347034374,0.6465659431285875,42.970902,-114.811515
idaho,id,16251,105.4,34.1,97.2,48.2,15.2,15.8,39434,mountain,0.19691095932557998,93.3604085902406,0.3076733739462187,45.844198,-115.46746
jefferson,id,27096,92.7,36.3,122.1,33.9,27.1,13.1,52950,mountain,0.06643046944198405,91.68881015648066,0.15131384706229703,43.820143,-112.311283
kootenai,id,147716,136,40,127.4,56.6,27,13.3,51681,mountain,0.38587559912264074,94.14010669121828,0.8556960654228384,47.674556,-116.700014
latah,id,38593,128.9,34.7,119.2,50.6,25,18.1,43699,mountain,0.7099733112222424,92.7551628533672,2.339802554867463,46.816128,-116.71168
lemhi,id,7743,118.4,57.3,109.7,46.5,33.5,18,38367,mountain,0.2066382539067545,95.44104352318223,0.43910628955185327,44.943243,-113.933163
minidoka,id,20331,130.3,34.7,109.1,54.8,17.5,14.4,41968,mountain,0.45251094387880575,90.29560769268605,0.4377551522305838,42.854399,-113.637517
nez perce,id,39995,128.9,30.4,140.7,69.3,26.5,13.4,46753,mountain,0.385048131016377,89.88623577947243,0.8526065758219777,46.326761,-116.750235
owyhee,id,11356,126.5,34.1,120.2,40.7,30.5,18.4,35017,mountain,0.12328284607256076,85.21486438886932,0.1585065163790067,42.581531,-116.169979
payette,id,22773,118.2,41.7,158.5,64.8,24.9,17.6,43642,mountain,0.3820313529179291,91.85878013436965,1.4139551222939446,44.006738,-116.760843
twin falls,id,80955,126.3,43.7,119,53.4,25.4,16,44602,mountain,0.6386263973812611,92.55265270829473,1.57124328330554,42.355978,-114.667163
valley,id,9897,129.5,24.8,121.5,41.3,27.5,11.7,48879,mountain,0.010104071940992219,98.8279276548449,0.11114479135091442,44.766702,-115.566128
washington,id,10035,136.1,38.1,174.4,68.3,23.9,17.9,37539,mountain,0,91.09118086696562,0.6078724464374688,44.452426,-116.784771
adams,il,66949,115.5,48.5,115.6,74.1,22.4,15.9,43604,east_north_central,3.795426369325905,93.00811065139136,0.7976220705313,39.987894,-91.188489
boone,il,53656,117.1,41.3,97.8,66.3,23,10.2,59537,east_north_central,2.141419412554048,87.53354704040555,1.3232443715521098,42.32308,-88.823363
bureau,il,33822,111.9,47.7,152.4,69.6,25.2,12,49062,east_north_central,0.6977706818047424,94.99733901011176,0.7864703447460233,41.404152,-89.528677
carroll,il,14793,124.3,46.8,127.7,54,14.9,14,43643,east_north_central,1.2911512201717028,95.94402758061246,0.6016359088758196,42.068686,-89.934413
cass,il,13068,112.9,58.6,74.2,89.7,22.5,12.9,45257,east_north_central,4.415365779002142,89.8989898989899,0.283134374043465,39.973565,-90.247386
champaign,il,206420,131.6,33.7,116.3,62.4,24.9,21.6,46917,east_north_central,12.583083034589672,73.05784323224493,10.177792849530084,40.140084,-88.199192
christian,il,33888,130.2,57,105.3,94.1,22.9,13.1,49391,east_north_central,1.5462700661000943,96.53564683663834,0.5282105760151086,39.545793,-89.277268
clark,il,16089,99.2,49.7,127.4,75.5,19.8,13.7,46287,east_north_central,0.4475107216110386,97.2465659767543,0.4350798682329542,39.333567,-87.787723
clay,il,13466,126.5,46.6,126,79.5,21.1,14.2,42369,east_north_central,0.6237932570919352,97.8241497103817,0.2747660775285905,38.754162,-88.490192
clinton,il,37858,138.6,52.1,120.2,63.6,25.8,9.5,61843,east_north_central,3.388979872153838,93.87447831369856,0.5626287706693434,38.606452,-89.422485
coles,il,52802,125.1,45.2,94.7,80.4,20.3,19.8,39353,east_north_central,3.674103253664634,92.99647740615886,1.1268512556342563,39.520287,-88.221795
cook,il,5227575,128.6,46.8,135.4,63.4,13.4,17.8,53795,east_north_central,23.891536706790433,56.728597868036324,6.845334595869021,41.895417,-87.646165
cumberland,il,10890,80.6,60.5,105.9,89.1,23.4,12.1,47382,east_north_central,0.18365472910927455,98.33792470156106,0.3213957759412305,39.273317,-88.24023
de witt,il,16322,122.7,67.7,175.8,94.3,22.2,13.8,53303,east_north_central,0.33696850876118123,96.10341869868888,0.049013601274353634,40.174629,-88.90409
dekalb,il,104458,124.9,43.4,140,72.8,20.2,18.7,54204,east_north_central,6.880277240613452,83.95814585766529,2.4737214957207683,41.893529,-88.770315
douglas,il,19770,115.8,41,144.1,66.3,22.9,10.7,49179,east_north_central,0.29337379868487606,96.59079413252402,0.6828528072837633,39.769464,-88.217355
dupage,il,930514,145,39.2,123.2,56.1,16.2,7,76269,east_north_central,4.7061086668228524,78.88457347229595,11.078178297156196,41.851956,-88.085628
edgar,il,17828,111.6,51.3,93.7,76.6,24.1,18.5,44433,east_north_central,0.4487323311644604,98.04240520529504,0.4262957146062374,39.678535,-87.745571
effingham,il,34356,119.4,56.7,159.6,67.5,22.8,11.1,50900,east_north_central,0.43951565956455935,97.65688671556642,0.5966934451042031,39.05977,-88.589857
fayette,il,22025,112.8,43.9,110,58,20.4,16.9,43014,east_north_central,4.472190692395006,93.48467650397276,0.49035187287173665,39.000191,-89.024144
ford,il,13758,149.8,45.9,128.3,66.8,23.4,11.4,52375,east_north_central,0.8358773077482192,97.41968309347288,0.4143044047099869,40.597177,-88.223259
franklin,il,39503,132.3,45.3,118.1,103.4,25.9,20,35681,east_north_central,0.6100802470698428,97.25843606814672,0.5619826342303116,37.992285,-88.924154
fulton,il,36047,138.6,45.3,133.1,74.9,21.1,14.8,46342,east_north_central,3.581435348295281,94.36846339501207,0.19973922933947347,40.472766,-90.207473
grundy,il,50338,125.1,50.3,142,90,21.6,8,68474,east_north_central,1.605149191465692,93.98267710278517,0.7131789105645834,41.285087,-88.418495
hamilton,il,8251,76.8,69.1,167.5,85.2,31.2,14.9,42330,east_north_central,0.496909465519331,99.28493515937463,0.12119743061447097,38.081574,-88.539106
hancock,il,18633,135.4,46,109.6,74.4,24.3,12.2,47965,east_north_central,0.48838082971072827,97.64933183062308,0.36494391670691784,40.403776,-91.164698
henry,il,49681,119.3,45.6,108.7,74.9,25.8,11.2,52117,east_north_central,1.8276604738229907,93.61123970934563,0.5535315311688573,41.353133,-90.131417
iroquois,il,28814,120.6,55.7,94.2,72,18.9,14,46977,east_north_central,1.2459221211910876,93.87103491358367,0.4893454570694801,40.747226,-87.824304
jackson,il,59188,120.6,48,97,69,22.7,29.5,34243,east_north_central,14.377914442116646,77.35520713658174,3.5598432114617826,37.78514,-89.382116
jefferson,il,38523,115.2,50.9,164.2,92.7,25.9,18.4,40663,east_north_central,8.306725852088363,87.732004257197,1.1499623601484827,38.30052,-88.924008
jersey,il,22441,100.1,29.7,117.1,78.7,29.8,10.5,54331,east_north_central,0.2851922819838688,97.1703578271913,0.5748406933737356,39.085662,-90.356683
jo daviess,il,22186,118.6,42.6,126.3,55.9,23.4,10.2,49573,east_north_central,0.401153880825746,97.57504732714324,0.5048228612638601,42.365816,-90.212586
johnson,il,12866,131.4,64.9,93.1,83.6,20.6,17.9,39965,east_north_central,9.67666718482823,88.90875174879527,0.2487175501321312,37.459631,-88.880889
kane,il,526615,124.9,37.8,128.3,58.9,17.9,10.9,71444,east_north_central,5.610360510050037,72.47533777047748,3.7308090350635665,41.938904,-88.428638
kankakee,il,111493,112.1,46.1,136,73.6,15.1,16.7,49584,east_north_central,15.165077628191904,79.95927995479536,1.0691254159453958,41.137705,-87.861798
kendall,il,121452,128.6,45.8,131.9,54.6,21.4,5.8,79648,east_north_central,6.531798570628726,83.11596350821723,3.1460988703356056,41.590542,-88.428834
knox,il,51752,116.1,44.9,108.3,69.1,26.2,19.6,39494,east_north_central,8.502086875869532,86.61501004792085,1.0782191992579997,40.931817,-90.213259
la salle,il,111935,116.4,49.6,180.1,76.4,26.3,13.8,49487,east_north_central,2.4407021932371467,94.28596953589137,0.6736052173136196,41.343995,-88.885946
lake,il,702890,135.8,39.3,112.7,58.2,22.7,9.5,75106,east_north_central,6.841895602441349,79.79498925863221,6.927115195834341,42.325323,-87.631209
lee,il,34718,112,47.3,120.7,66.9,25.3,12.4,53126,east_north_central,5.089578892793364,90.78863989861168,0.6221556541275419,41.746193,-89.300387
livingston,il,37278,126.9,49.7,154.6,81.6,26.6,12.5,52819,east_north_central,4.4020601963624655,92.45667686034659,0.6840495734749719,40.891557,-88.557717
logan,il,29820,123.9,60.6,125.3,90.7,18.3,13.6,50991,east_north_central,10.248155600268277,80.54996646545942,0.6002682763246143,40.124557,-89.367546
macon,il,108404,131.4,51,147.1,96.6,24.3,18.1,46179,east_north_central,14.131397365410871,78.35780967491975,1.1752333862219106,39.859995,-88.961597
macoupin,il,46482,126,51.5,132.2,79.5,20.8,13.9,50089,east_north_central,0.546448087431694,97.00098963039456,0.4819069747429112,39.261015,-89.924433
madison,il,266759,124.7,43.5,121.6,83.5,21.1,13.7,53864,east_north_central,8.25051825805315,88.1147402711811,0.9011879636675801,38.829853,-89.905168
marion,il,38503,125,49.1,128,91.5,26.3,19.2,40969,east_north_central,3.516609095395164,92.9797678103005,0.8492844713398956,38.649591,-88.918973
marshall,il,12060,140.1,48.1,175.6,58.5,27.1,10.2,50899,east_north_central,0.3648424543946932,97.16417910447761,0.35655058043117743,41.033174,-89.344777
mason,il,13931,111.3,49.9,108.5,92.3,25.6,14,45563,east_north_central,0.7465365013279736,97.69578637570885,0.43069413538152324,40.239648,-89.916784
massac,il,14883,120.2,45,113.3,100.9,21.1,17.5,41373,east_north_central,6.416717059732581,90.9830007390983,0.41658267822347644,37.219027,-88.707744
mcdonough,il,31727,107.5,50.2,111.9,63.1,23.1,21.1,41661,east_north_central,5.386579254262931,90.34891417404734,2.0235130961011127,40.456211,-90.67791
mchenry,il,307083,138.2,43.6,119.1,65.3,19.9,7.1,75713,east_north_central,1.3048589469296574,92.34115857927661,2.667357033766115,42.324387,-88.45245
mclean,il,173254,131,42.1,157,64.1,30.2,13.8,62261,east_north_central,8.223186766250707,83.4231821487527,4.934950996802383,40.49089,-88.847323
menard,il,12576,134.7,46.9,101.3,75.9,20.6,10.8,60151,east_north_central,0.691793893129771,97.2248727735369,0.44529262086513993,40.027397,-89.80217
mercer,il,15971,139.9,44.6,120.2,76.7,26.7,9.7,53626,east_north_central,0.5447373364222654,97.57059670653058,0.29428338864191345,41.205339,-90.741408
monroe,il,33703,125.2,44.1,130.8,60.9,29.6,4.9,71604,east_north_central,0.2937423968192743,97.63819244577634,1.1185947838471353,38.278649,-90.177377
montgomery,il,29301,136.6,55.6,118.2,86.5,19.2,16.1,42614,east_north_central,8.009965530186683,89.91160711238524,0.2696153714890277,39.23104,-89.47887
morgan,il,34801,135.4,48.7,122.2,77.6,20,16,48223,east_north_central,5.939484497571909,91.11232435849544,0.6091778971868624,39.715565,-90.201496
moultrie,il,14915,137.3,38,98.9,56.9,23.6,12.4,47645,east_north_central,0.36205162587998657,98.26349312772376,0.12068387529332886,39.641479,-88.619299
ogle,il,52034,122.5,40.8,83.1,66.7,26.4,13,51334,east_north_central,1.0377829880462774,94.38059730176423,0.4170350155667448,42.042645,-89.320654
peoria,il,186818,135.3,47.3,149.6,84,23.8,17,49827,east_north_central,17.41320429508934,73.53520538706121,3.7614148529584943,40.788081,-89.759987
perry,il,21595,125,54.5,108.3,74.4,26.2,17.6,41931,east_north_central,8.441768927992591,89.07617504051863,0.5695762908080574,38.08376,-89.367015
piatt,il,16469,146.6,30.1,118.3,79.8,40.3,7.2,66279,east_north_central,0.39468091565972435,97.37081790029752,0.46147307061752385,40.010367,-88.591091
pike,il,16054,111,57.6,98.7,68.4,18.5,17.3,39430,east_north_central,1.2956272580042356,96.74224492338358,0.3301357917030024,39.622496,-90.886287
randolph,il,32934,97.2,57.9,102.1,78.6,21,14.1,44991,east_north_central,10.493714702131536,87.34134936539746,0.33703771178721076,38.052124,-89.825311
richland,il,16072,120.3,48.9,127.7,81.6,26.8,16.4,41985,east_north_central,0.5662020905923345,97.08810353409656,0.6533101045296167,38.71236,-88.085101
rock island,il,146536,119.9,44.3,118.3,66.8,26.4,15.8,48160,east_north_central,9.599006387508872,81.96552383032156,2.265654856144565,41.46733,-90.567426
saline,il,24659,104.2,57.9,118.2,91.8,22.7,18.6,39281,east_north_central,3.369966340889736,93.17085039944848,0.6691268907903808,37.753183,-88.540801
sangamon,il,198639,138.1,48.5,119.7,77.6,21.8,15.2,55255,east_north_central,12.663676317339496,82.46869950009817,1.7715554347333604,39.758173,-89.658898
shelby,il,22011,113.4,48.2,100.5,77.1,20.1,12.6,50569,east_north_central,0.6496751624187906,98.38717005133796,0.3498250874562719,39.391156,-88.805536
st. clair,il,265569,123,45.9,126.2,75.8,19.2,18.3,48343,east_north_central,29.89882102203194,64.9157092883582,1.3638640052114517,38.470305,-89.92841
stephenson,il,46283,108.2,39.3,104.7,63.8,21.4,18.6,42897,east_north_central,9.312274485232159,86.18715295032733,0.8383207657239159,42.351747,-89.66236
tazewell,il,135400,125.9,48.3,139.6,87.2,24.1,8.9,57544,east_north_central,1.2038404726735599,95.98449039881831,0.9290989660265879,40.507517,-89.51342
union,il,17458,124.9,48.5,102.9,102.7,25.5,16.7,42799,east_north_central,0.7102760911902852,94.00847748883034,0.4353305075037232,37.471228,-89.255088
vermilion,il,79613,133.8,54.2,140.6,86.4,20.2,19.6,44085,east_north_central,13.749010839938201,82.7892429628327,0.8943263034931481,40.183422,-87.732835
warren,il,17611,151.9,48.2,109.4,74,24.3,15.1,45770,east_north_central,2.799386746919539,89.92107205723696,2.169098858667878,40.848832,-90.615029
washington,il,14369,110.1,66.2,153.6,74.1,23.1,9.9,53967,east_north_central,0.8003340524740762,96.7081912450414,0.5010787111142042,38.352175,-89.410454
wayne,il,16517,128.7,34,122.6,89.2,23.6,17.4,42896,east_north_central,0.6659805049343102,97.29369740267603,0.77495913301447,38.429565,-88.425614
whiteside,il,57155,122.9,38.1,120.4,71.8,22.3,12.1,50489,east_north_central,1.9858280115475462,92.70055113288426,0.5388854868340478,41.756265,-89.914092
will,il,685378,129.2,45.2,134,72,16.4,8.5,74669,east_north_central,11.163620658964835,74.19248940000992,5.131474894146004,41.445035,-87.978658
williamson,il,67336,104.7,55.7,108.6,97.5,23.9,16.2,44041,east_north_central,4.330521563502436,92.29535463942022,0.9875846501128668,37.730247,-88.929937
winnebago,il,288896,117.4,42.2,105.2,74,24.3,16.3,47214,east_north_central,12.502769162605228,78.58883473637572,2.5240917146654853,42.336265,-89.160853
woodford,il,39123,141.4,42.3,119.1,61,24,7,67036,east_north_central,0.5495488587276027,96.82795286660021,0.7821486082355648,40.788232,-89.211137
adams,in,34813,103.4,54,110.6,50.2,23,15.5,48001,east_north_central,0.7095050699451354,96.92643552695831,0.3475713095682647,40.74566,-84.936655
allen,in,365565,122.3,42.7,101.2,61.9,18.4,17,45587,east_north_central,11.53502113167289,79.59925047529167,3.344959172787329,41.090871,-85.066562
bartholomew,in,80203,122.4,40.2,86.1,77.8,20.7,11.6,54341,east_north_central,1.897684625263394,86.1663528795681,5.716743762702143,39.205973,-85.897605
blackford,in,12364,104.9,51.6,122.6,74.9,22,15.4,39373,east_north_central,0.6065998058880622,97.34713684891621,0.30734390164995146,40.473601,-85.32482
boone,in,61884,141.9,34.8,104,67,19.1,7.3,68047,east_north_central,1.3040527438433198,94.05823799366557,2.4190420787279425,40.050801,-86.468696
brown,in,14965,90.3,45.7,93.7,61.8,29.3,13.4,51074,east_north_central,0.273972602739726,97.17340461075844,0.29401937854994986,39.196211,-86.227375
carroll,in,20007,93.7,42.5,102.8,66.1,17.8,10.9,52587,east_north_central,0.449842555105713,97.00104963262858,0.0899685110211426,40.582859,-86.563484
cass,in,38324,115.4,42.4,107.1,89.5,11.3,13.8,41611,east_north_central,1.4664440037574367,84.88936436697631,1.4768813276275963,40.761491,-86.345947
clark,in,113993,118.5,43.6,56.3,88.1,12.8,11.7,50296,east_north_central,6.945163299500846,88.16857175440597,0.7816269420052109,38.477195,-85.707272
clay,in,26568,117.6,52.3,107.5,73.8,20.1,15,47030,east_north_central,0.2408912978018669,97.289972899729,0.08280638361939174,39.392728,-87.115758
clinton,in,32692,113.1,48,94.1,76.2,16.6,14.4,47279,east_north_central,1.0920102777437906,93.51217423222806,0.21106080998409396,40.301691,-86.47516
daviess,in,32583,82.6,44.1,91.3,62.8,17.9,13.9,45578,east_north_central,1.7892766166405794,95.66645183070926,0.27314857440996837,38.70241,-87.072068
de kalb,in,42489,126.4,50.4,98.4,68.5,17.8,12.9,50279,east_north_central,0.3600932005930947,96.92861681847066,0.36480030125444235,41.39758,-84.999084
dearborn,in,49552,121.4,42,101,82.3,16,10.8,55077,east_north_central,0.8415402001937359,97.11616080077495,0.4177429770745883,39.145186,-84.973261
decatur,in,26340,81.6,35.8,118,69.6,19,12.9,47666,east_north_central,0.5656795747911921,96.38192862566439,1.3249810174639332,39.307,-85.501143
delaware,in,116463,114.9,43.4,122.5,79.9,21,23,37116,east_north_central,6.116964186050505,88.64875539871032,1.2982664022049921,40.227525,-85.396899
dubois,in,42345,111.8,41.6,116.9,55,24,8.9,55606,east_north_central,0.4179950407368048,94.97697484945094,0.6612350926909907,38.364276,-86.879802
elkhart,in,201640,112.9,42.1,102.9,70.2,19.2,15.5,46123,east_north_central,5.602063082721682,87.3636183296965,1.0841102955762745,41.597384,-85.858755
fayette,in,23608,83.9,33.9,98.5,87.4,16.3,17.3,40212,east_north_central,2.4483226025076243,96.2427990511691,0.16943409013893596,39.640056,-85.178725
floyd,in,76290,132.3,38.5,71.9,79.3,15.1,13.1,55844,east_north_central,5.160571503473587,90.23594180102242,1.0617381046008652,38.318929,-85.906831
franklin,in,22887,100.6,32.8,118.6,64.7,19.7,11.4,53538,east_north_central,0.33206623847599076,97.915847424302,0.7995805479092934,39.414865,-85.060285
fulton,in,20412,119.6,55.6,100.2,83.8,20.9,16.3,44337,east_north_central,0.9014305310601607,94.33666470703508,0.5437977660199882,41.046963,-86.263584
gibson,in,33684,112.7,44,119.2,70,19.4,12,48579,east_north_central,1.822823892649329,95.13715710723191,0.2464077900486878,38.311825,-87.584595
grant,in,68269,116.4,56.1,130.5,85.5,19.6,21.7,39325,east_north_central,7.064699937013872,88.6288066325858,0.7411856040076755,40.515845,-85.654726
greene,in,32633,97.8,44.4,75.3,81.1,23.8,13.7,43786,east_north_central,0.3217601814114547,98.00202249256887,0.3891766003738547,39.036329,-86.962047
hamilton,in,303042,131.1,37.3,95,46.7,22.8,5.5,84022,east_north_central,3.560562562285096,87.65748642102415,5.526956659472944,40.072489,-86.052014
hancock,in,71955,121.5,39.9,74.5,83.1,25.3,6.5,67738,east_north_central,2.033215203946911,95.30817872281287,0.7462997706900146,39.82355,-85.773238
harrison,in,39370,124.2,35.3,73.3,90.7,16.4,13,50321,east_north_central,0.08636017272034544,97.27965455930912,0.7772415544831089,38.195123,-86.111311
hendricks,in,155817,133,35.6,110.1,69.9,17.5,6.4,68575,east_north_central,6.149521554130807,88.93060449116592,2.4798321107452974,39.769517,-86.509976
henry,in,48953,108.7,48.9,91.6,76.6,18.9,17.2,42133,east_north_central,2.028476293587727,95.14840765632341,0.347271873021061,39.93104,-85.396435
howard,in,82728,108,36.2,85.9,75,16.8,15.8,45211,east_north_central,7.082245430809399,88.08625858234214,1.3224059568707087,40.483586,-86.116931
huntington,in,36696,127.9,40.1,107.4,65,21.5,13,44828,east_north_central,0.855679093089165,96.68356224111619,0.8039023326793111,40.82924,-85.488172
jackson,in,43637,128.8,50.3,90,81.4,25.9,12.9,49614,east_north_central,0.5454087127896051,92.12136489676192,2.3053830464972385,38.90642,-86.037538
jasper,in,33461,123.7,45.4,101.9,85.6,10.9,10.7,53757,east_north_central,0.9085203669944114,95.63969994919458,0.37058067601087835,41.022998,-87.116121
jay,in,21196,122.6,65.7,100.6,68.9,25.6,16,41847,east_north_central,0.36799396112474053,97.98546895640686,0.36799396112474053,40.437918,-85.005635
jefferson,in,32482,96.7,45.3,106.6,81.7,17.9,15.3,44569,east_north_central,1.9302998583831046,94.67089464934425,0.8066005787820947,38.785823,-85.438573
jennings,in,28023,111.7,42.2,71.4,97.9,19,16.9,44554,east_north_central,1.3274809977518467,97.16661313920709,0.22481533026442566,38.99693,-85.628065
johnson,in,147567,117.5,46.3,62.4,67.9,21.7,11.8,58936,east_north_central,2.119715112457392,92.50645469515543,2.4815846361313842,39.489971,-86.101637
knox,in,37956,133.1,54,121.5,76,20.6,15.9,44091,east_north_central,3.006112340604911,94.3276425334598,0.7376962799030456,38.68909,-87.418008
kosciusko,in,78461,121.7,48.8,102.6,71.6,22.7,12.7,51603,east_north_central,0.9291240234001605,93.75740813907547,1.028536470348326,41.244097,-85.860718
la porte,in,110993,112.1,46.6,127.4,77.2,26.4,17,46610,east_north_central,10.957447766976296,83.57734271530637,0.5649004892200409,41.549022,-86.742366
lagrange,in,38395,104.4,37.7,83.4,56.4,16.2,12.7,51810,east_north_central,0.22398749837218387,97.94244042192994,0.09115770282588878,41.642606,-85.426498
lake,in,489698,127.2,50.8,131.9,74,10.7,17.8,48341,east_north_central,24.651111501374317,61.84771022140176,1.3685986056712505,41.472211,-87.376382
lawrence,in,45696,107.2,55.6,95.9,89.5,27.3,12.9,44435,east_north_central,0.35014005602240894,96.65397408963585,0.507703081232493,38.841163,-86.483451
madison,in,129862,114.3,42.2,128.7,81.8,16.3,19.6,41117,east_north_central,7.846021160924674,87.82861807149128,0.42121636814464586,40.161656,-85.719345
marion,in,932142,126.7,39.7,86.5,79.7,14.1,21.3,41478,east_north_central,27.341649662819613,62.44188117261104,2.7076346736870565,39.78171,-86.138472
marshall,in,46833,108.4,42.7,116.3,67.1,18.2,13.8,45855,east_north_central,0.6042747635214486,93.60707193645506,0.4099673307283326,41.324849,-86.261761
miami,in,36093,88.2,33.2,82.1,77.1,12.2,17.7,43694,east_north_central,4.995428476435874,91.460948106281,0.4349873936774444,40.769504,-86.045023
monroe,in,143292,123,44,96,66.9,31,24,42404,east_north_central,3.0915892024676883,86.71244731038718,6.25715322558133,39.160918,-86.523137
montgomery,in,38108,108.5,41.7,83.6,70,12.1,12.5,50889,east_north_central,0.8922011126272699,96.09530807179596,0.6297890206780729,40.040379,-86.8933
morgan,in,69504,132.2,51.9,108.9,83.9,21.3,12.7,56491,east_north_central,0.3740791896869245,97.34403775322284,0.6747813075506446,39.481548,-86.446212
noble,in,47587,116.2,41.6,89.2,69,14.6,13.6,48789,east_north_central,0.3572404228045475,96.72389518145712,0.6556412465589342,41.398599,-85.417467
orange,in,19579,115.4,58.5,70.1,85.4,18.5,16.8,39411,east_north_central,1.2768782879615914,96.61882629347771,0.5107513151846366,38.541779,-86.495069
owen,in,21038,96.6,50,86,85,22.6,15,42994,east_north_central,0.6416959787052001,97.52828215609848,0.49434356878030233,39.312812,-86.837652
perry,in,19301,124.7,39.1,77.5,101.2,13.7,14.2,45722,east_north_central,3.0879229055489352,94.74638619760634,0.2953214859333713,38.079649,-86.638032
pike,in,12554,123.4,49.3,102.2,66.6,22.8,12.3,45679,east_north_central,0.7965588657001752,97.35542456587542,0.995698582125219,38.398783,-87.232164
porter,in,167016,125.3,46.6,125.9,73.6,17.1,11.7,64530,east_north_central,3.5373856396991905,91.64331561048043,1.407649566508598,41.508838,-87.073319
posey,in,25527,108.8,42.8,119.8,60.3,23.5,9.6,58477,east_north_central,1.3475927449367338,97.10894347161829,0.47792533396012066,38.021892,-87.868471
pulaski,in,12910,111.5,48,122.4,71.1,22,14.3,44821,east_north_central,0.34856700232378,96.18125484120837,0.4027885360185902,41.041832,-86.698779
putnam,in,37626,119.8,49.2,66.7,95.1,14.1,13.2,51052,east_north_central,3.5640248764152447,93.85265507893477,0.8929995216073991,39.666262,-86.845
randolph,in,25403,119.3,47.7,133.9,83.1,22.6,18.1,41057,east_north_central,0.9290241310081486,96.53977876628744,0.19289060347203085,40.15764,-85.01131
ripley,in,28633,101.4,41.7,92,75.6,25.3,10.2,47495,east_north_central,0.3946495302622848,96.79740159955297,0.9953550099535501,39.103455,-85.262386
rush,in,16873,132.3,43.6,87.3,80.8,20.4,12.8,46910,east_north_central,1.2327386949564392,97.00112605938482,0.17187222189296508,39.619948,-85.465761
scott,in,23734,116.5,53.1,54,91.8,15.1,17,43650,east_north_central,0.24858852279430352,97.44248757057386,0.3960562905536361,38.68507,-85.747468
shelby,in,44404,133.5,47.6,99.2,81.8,22.6,12.6,49657,east_north_central,1.2904242861003514,94.25277002071886,0.655346365192325,39.523692,-85.7917
spencer,in,20777,113.5,43.3,99,77.9,21.5,10.5,50533,east_north_central,0.6353178996005198,96.55388169610627,0.1540164605092169,38.014059,-87.007706
st. joseph,in,267696,121.3,45.8,117.5,71.5,16,20.1,40978,east_north_central,12.9385571693264,79.12034546649932,2.102384794692487,41.616718,-86.289858
starke,in,23069,103.7,42.6,109,93.5,20.9,19.4,39552,east_north_central,0.4161428757206641,96.56682127530452,0.3034375135463176,41.280926,-86.647649
steuben,in,34279,99.7,39.1,99,71,16.9,12.3,46275,east_north_central,0.24796522652352754,97.2490446045684,0.4755097873333528,41.643868,-85.000765
sullivan,in,21026,95.3,50.5,93,81.8,12.6,18.3,41978,east_north_central,4.527727575382859,93.39389327499286,0.31865309616665083,39.088835,-87.41469
switzerland,in,10484,88.1,71.3,57.9,84.7,32.5,19.9,43243,east_north_central,0.6104540251812285,97.68218237314002,0.15261350629530712,38.826161,-85.036998
tippecanoe,in,183397,122.4,44.7,99.9,64,20.3,19.6,47808,east_north_central,4.68110165378932,84.05426479168143,7.591727236541492,40.388619,-86.894097
tipton,in,15447,129.6,56,65.5,73.3,17.3,10.3,53185,east_north_central,0.16831747264841068,96.42649058069529,0,40.311345,-86.051859
vanderburgh,in,181692,110.8,40.2,102.4,79.6,13.8,18.7,42014,east_north_central,8.995442837329106,86.01754617704687,1.058384518856086,38.025143,-87.585783
vermillion,in,15752,105,54.9,130,92.6,17.7,13.9,40813,east_north_central,0.3745556119857796,98.1018283392585,0.1015744032503809,39.853797,-87.463974
vigo,in,108099,133.1,46.8,112.4,80.4,18.2,23.9,39014,east_north_central,5.858518580190381,87.45501808527368,1.9038103960258652,39.430639,-87.389964
wabash,in,32177,101.7,47.1,120.3,64.3,24.4,14.2,45833,east_north_central,0.8360008701867794,95.6055567641483,0.11809677720110638,40.845693,-85.794006
warrick,in,61427,139.4,40.9,109.2,66.7,17.6,7.9,61820,east_north_central,1.5318996532469435,94.40311263776515,2.1847070506454815,38.092166,-87.272054
washington,in,27792,128,51.4,68.5,96.2,15.8,15.5,43981,east_north_central,0.046776050662061024,98.22610823258492,0.16191709844559585,38.599984,-86.105306
wayne,in,67423,111.3,44.2,113.1,85.2,20.3,23,36623,east_north_central,5.0012606973881315,89.75127182118861,0.8646900909185293,39.864416,-85.009876
wells,in,27836,114.6,34.7,82.1,52.4,24.7,11.8,49452,east_north_central,0.7220865066819946,96.88173588159218,0.6933467452220147,40.729187,-85.22122
whitley,in,33354,109.8,43.2,106.3,63.8,24.4,8.9,52673,east_north_central,0.3897583498231097,96.83995922528032,0.365773220603226,41.139375,-85.505118
adair,ky,19156,117.7,48.9,85,91.2,18.4,25,31710,east_south_central,3.095635832115264,94.82146585926081,0.2505742326164126,37.104156,-85.280649
allen,ky,20421,127.4,45.6,93.7,82.9,14.9,20.6,39798,east_south_central,1.518045149600901,96.47421771705598,0.35257822829440283,36.751317,-86.190419
anderson,ky,21867,137.6,51.1,129.7,95.1,24.1,11.4,52852,east_south_central,2.5517903690492525,95.40403347509947,0.3841404856633283,38.003911,-84.991009
barren,ky,43287,104.4,51,116.2,106.9,20.1,20.7,38370,east_south_central,4.091297618222561,92.82001524707186,0.4735832929054913,36.965581,-85.933663
bath,ky,12113,136.2,53.9,129.3,109,27.2,26.5,33752,east_south_central,1.5603071080657145,96.16114917856848,0.18987864278048378,38.144974,-83.742667
bell,ky,27676,83.9,57.7,96.2,99.5,20.4,35.7,25761,east_south_central,3.374765139471022,94.9848243965891,0.364937129643012,36.730648,-83.674095
boone,ky,125656,122,42.7,134.2,86,23.4,8.7,65274,east_south_central,2.7638950786273635,91.78153052779015,2.4344241421022472,38.969864,-84.727866
bourbon,ky,20004,100.2,39.9,128,93.4,26.9,16.5,40045,east_south_central,7.173565286942612,90.26694661067786,0.27494501099780044,38.206734,-84.217151
boyd,ky,48716,114.7,48.3,113.1,92.7,29.2,20.3,41443,east_south_central,2.6254208063059363,94.400197060514,0.3859101732490352,38.359572,-82.687726
boyle,ky,29650,141.8,44.8,133.5,77.6,29.5,17.2,43585,east_south_central,7.042158516020236,88.84317032040472,0.7925801011804384,37.624333,-84.866812
bracken,ky,8404,119.8,78.7,115.3,120.6,42.2,16.2,43222,east_south_central,0.023798191337458353,98.42931937172774,0.09519276534983341,38.688814,-84.09019
breathitt,ky,13476,101,69.9,90.6,105.7,22.4,33.9,26869,east_south_central,0.6010685663401603,97.69961412882161,0.4452359750667854,37.521617,-83.324085
breckinridge,ky,2e4,110.9,62.1,107.6,110.2,26.7,19.2,40107,east_south_central,1.765,95.725,0.38,37.773268,-86.429278
bullitt,ky,77727,142.5,55.7,109.5,90.9,30.3,10.2,57462,east_south_central,0.6252653518082519,96.33074735934746,0.5236275682838654,37.970076,-85.695857
caldwell,ky,12758,103.7,42.6,114.7,103.9,21.2,19,37317,east_south_central,6.113810942153942,92.53017714375294,0,37.145333,-87.867907
calloway,ky,38302,98.1,45.9,124.6,79.1,32.8,22.8,37977,east_south_central,3.6186099942561745,91.47564095869667,1.7048718082606653,36.621101,-88.272201
campbell,ky,91456,126.9,54.5,118.5,94.5,29.2,14.8,53321,east_south_central,3.3414975507347795,93.82872638208538,0.7544611616515046,38.946477,-84.379696
carroll,ky,10776,137.7,63.9,83.7,120.7,38.3,21,41792,east_south_central,2.5334075723830733,89.7271714922049,0.3619153674832962,38.667858,-85.12359
carter,ky,27292,132.6,54.1,119.8,103,16.3,22.5,34767,east_south_central,0.8903708046313938,97.96277297376521,0.1172504763300601,38.318173,-83.049537
casey,ky,15928,105,52.5,119.9,108.6,21.7,29.7,29303,east_south_central,0.6654947262682069,97.16850828729282,0.27624309392265195,37.32228,-84.928369
christian,ky,73936,102.7,48.4,121.8,84.9,21.5,18.1,41333,east_south_central,20.489342133737285,71.84862583856308,1.4877732092620646,36.894181,-87.490381
clark,ky,35706,132.9,54.3,109.8,93.4,31.7,17.1,45516,east_south_central,5.20920853638044,92.7351145465748,0.6049403461603092,37.970852,-84.147399
clay,ky,21160,119.6,55.5,157.4,118.6,17.2,42.8,24173,east_south_central,4.012287334593573,93.6531190926276,0.06143667296786389,37.159711,-83.714681
clinton,ky,10172,119.6,57.7,101.6,111.7,32.4,27.6,27443,east_south_central,0.7078254030672434,97.9748328745576,0.22611089264648054,36.727482,-85.136014
cumberland,ky,6780,99.7,59.9,96.6,96.4,39.7,26.2,30043,east_south_central,3.2890855457227137,94.6165191740413,0.39823008849557523,36.78653,-85.388449
daviess,ky,98724,110.7,43.9,151.1,110.2,27.2,15.3,46908,east_south_central,4.652364166767959,91.50054697945788,1.1527085612414407,37.731772,-87.087227
estill,ky,14406,131.1,55.3,94,124.6,24.8,28.1,30388,east_south_central,0.11800638622796057,97.94530056920728,0,37.692482,-83.96433
fayette,ky,311529,141.3,42.4,134.2,74,26.7,19,47959,east_south_central,14.547281312494182,75.83306851047575,3.4959827174998153,38.042324,-84.458726
fleming,ky,14543,142.6,66,109,90.5,28,23.2,35454,east_south_central,1.340851268651585,96.27999724953585,0.09626624492883173,38.37011,-83.696647
floyd,ky,38144,114.1,58.5,110,149.4,16.8,30.6,31229,east_south_central,0.7314387583892618,97.82141359060402,0.2988674496644295,37.557109,-82.745704
franklin,ky,49982,134.4,49.9,92.2,93,32,16.9,46309,east_south_central,10.301708615101436,82.78380216878077,1.7626345484374375,38.239148,-84.877068
garrard,ky,17051,139.3,64.7,99.6,97.8,28.7,19.3,42853,east_south_central,1.214005043692452,96.13512403964577,0.15834848395988504,37.639578,-84.537633
grant,ky,24705,129.6,54.4,131.1,95.8,12.5,20.1,43861,east_south_central,0.5909734871483505,94.87553126897389,0.08500303582270795,38.648812,-84.624614
graves,ky,37379,127.2,47.6,90.4,85.8,27.5,19.3,39960,east_south_central,4.521255250274218,90.90398352015838,0.4039701436635544,36.723138,-88.651206
grayson,ky,26092,121.4,70.2,86.9,129.7,25.4,25.1,32813,east_south_central,1.391231028667791,96.24405948183352,0.17629924881189638,37.460819,-86.343877
green,ky,11123,101.5,52.2,94,86.4,36,23.1,32309,east_south_central,2.238604692978513,95.2440888249573,0.3865863526027151,37.264108,-85.553105
greenup,ky,36255,108.3,47.9,104.1,107.4,24.9,19,44581,east_south_central,0.780581988691215,97.00730933664322,0.4192525168942215,38.545665,-82.922288
hardin,ky,107573,121.3,51.5,135.4,101.5,20.4,14.4,48327,east_south_central,11.603283351770425,79.70866295445883,2.1576046033856078,37.697924,-85.963372
harlan,ky,28031,89.1,56.9,86,127.6,20.4,30.5,25460,east_south_central,2.4437230209411007,95.5192465484642,0.4102600692090899,36.856974,-83.217952
harrison,ky,18629,90.7,50.5,106.3,95.8,20.6,17.4,42228,east_south_central,2.012990498684846,95.06146330989317,0.08588759461055344,38.441807,-84.331385
hart,ky,18510,88.4,49.8,79.2,114.5,21.5,27.9,33588,east_south_central,4.764991896272285,93.29011345218801,0.23230686115613183,37.299927,-85.884709
henderson,ky,46362,119.1,57.3,97.5,97.8,19.6,19.5,42492,east_south_central,7.219274405763341,88.3740994780208,0.3472671584487296,37.795898,-87.573161
henry,ky,15528,144.5,52.8,109.3,109.3,33.6,15.4,48245,east_south_central,3.4711488923235447,93.30242143225142,0,38.448468,-85.11893
hopkins,ky,46359,101.3,47.8,99.2,89.9,24.2,17.5,40782,east_south_central,6.315925710218081,90.08175327336656,0.5069134364416834,37.30882,-87.540842
